     2.11           OBSERVATION DATA    G (GPS)             RINEX VERSION / TYPE
teqc  2018Jun8      NGS Web             20191128 00:20:45UTCPGM / RUN BY / DATE
Linux 2.4.21-27.ELsmp|Opteron|gcc|Linux 64|=+               COMMENT
teqc  2019Feb25     CORS-ADM Account    20191031 18:47:58UTCCOMMENT
teqc  2019Feb25     NOAA/NOS/NGS/CORS   20190930 04:34:57UTCCOMMENT
teqc  2018Dec12     gpsops              20190929 00:58:19UTCCOMMENT
Linux 2.6.32-573.12.1.x86_64|x86_64|gcc -static|Linux 64|=+ COMMENT
BIT 2 OF LLI FLAGS DATA COLLECTED UNDER A/S CONDITION       COMMENT
                                                            COMMENT
This data is provided as a public service by NASA/JPL.      COMMENT
No warranty is expressed or implied regarding suitability   COMMENT
for use.  For further information, contact:                 COMMENT
Dave Stowers, NASA/JPL m/s 238-600                          COMMENT
4800 Oak Grove Drive, Pasadena CA 91109 USA                 COMMENT
                                                            COMMENT
 SNR is mapped to RINEX snr flag value [0-9]                COMMENT
  L1 & L2: min(max(int(snr_dBHz/6), 0), 9)                  COMMENT
teqc.e edited: all SBAS satellites excluded                 COMMENT
teqc.e edited: all QZSS satellites excluded                 COMMENT
Forced Modulo Decimation to 30 seconds                      COMMENT
GODE                                                        MARKER NAME
40451M123                                                   MARKER NUMBER
GGN                 NASA GODDARD SPACE FLIGHT CENTER        OBSERVER / AGENCY
3013928             SEPT POLARX5TR      0.0.0-181002        REC # / TYPE / VERS
129                 AOAD/M_T        JPLA                    ANT # / TYPE
  1130774.4390 -4831255.0710  3994200.5580                  APPROX POSITION XYZ
        0.0614        0.0000        0.0000                  ANTENNA: DELTA H/E/N
     1     1                                                WAVELENGTH FACT L1/2
     8    L1    L2    P1    P2    C1    C2    S1    S2      # / TYPES OF OBSERV
    30.0000                                                 INTERVAL
teqc.w windowed: start @ 2019 Sep 29 16:00:00.000           COMMENT
teqc.w windowed:  end  @ 2019 Sep 30 04:00:00.000           COMMENT
teqc.w edited: all GLONASS satellites excluded              COMMENT
teqc.w edited: all SBAS satellites excluded                 COMMENT
teqc.w edited: all Galileo satellites excluded              COMMENT
teqc.w edited: all Beidou satellites excluded               COMMENT
teqc.w edited: all QZSS satellites excluded                 COMMENT
  2019     9    29    16     0    0.0000000     GPS         TIME OF FIRST OBS
    18                                                      LEAP SECONDS
                                                            END OF HEADER
 19  9 29 16  0  0.0000000  0 10G13G19G12G05G02G15G09G06G29G25
 122059052.528 7  95110950.80743  23227060.158    23227060.543    23227060.609
                        42.500          23.750
                                                                  25488199.618
                        19.500
 125144688.332 7  97515324.188 5  23814245.516    23814245.442    23814245.958
  23814246.005          43.000          34.250
 105445073.820 8  82165001.339 8  20065524.192    20065523.357    20065524.482
  20065523.604          52.250          48.500
 111223585.042 8  86667729.87846  21165141.643    21165139.175    21165142.640
                        48.750          40.750
 132025719.094 6 102877196.385 5  25123658.776    25123660.025    25123658.811
  25123660.108          39.500          33.500
 129952255.834 6 101261509.529 5  24729090.346    24729094.020    24729090.855
  24729093.789          36.500          34.000
 124094147.853 6  96696736.735 6  23614333.517    23614336.870    23614333.914
  23614338.144          40.500          38.500
 116731643.682 8  90959726.838 6  22213290.107    22213289.556    22213290.580
  22213289.833          48.250          40.750
 122631841.470 6  95557285.771 6  23336063.182    23336065.783    23336063.991
  23336067.166          40.250          38.250
 19  9 29 16  0 30.0000000  0 10G13G19G12G05G02G15G09G06G29G25
 121954771.650 7  95029693.03943  23207215.948    23207216.153    23207216.435
                        42.000          22.750
                                                                  25509976.831
                        18.750
 125241155.194 7  97590493.103 5  23832602.703    23832602.016    23832603.136
  23832603.867          43.250          35.250
 105439008.857 8  82160275.390 8  20064370.035    20064369.249    20064370.325
  20064369.589          52.250          48.500
 111238830.137 8  86679609.16546  21168042.568    21168040.162    21168043.569
                        49.000          41.000
 131907503.241 6 102785080.144 5  25101162.815    25101164.351    25101162.837
  25101164.798          39.500          34.250
 130036887.034 6 101327455.865 5  24745195.886    24745198.712    24745196.337
  24745199.113          36.250          34.000
 124169094.601 6  96755136.715 6  23628595.623    23628598.645    23628596.043
  23628599.434          41.250          38.500
 116648079.198 8  90894611.645 6  22197388.161    22197387.747    22197388.639
  22197388.244          48.250          40.250
 122686053.101 6  95599528.550 6  23346379.581    23346382.451    23346380.421
  23346383.439          39.750          38.000
 19  9 29 16  1  0.0000000  0  9G13G12G05G02G15G09G06G29G25
 121850641.631 7  94948552.80243  23187401.418    23187401.311    23187401.936
                        42.000          23.000
 125337719.973 7  97665738.355 6  23850978.378    23850978.936    23850978.775
  23850979.064          43.000          36.000
 105433398.814 8  82155903.915 8  20063302.429    20063301.694    20063302.715
  20063302.167          52.500          48.750
 111254291.460 8  86691656.94846  21170984.936    21170982.177    21170985.933
                        49.000          40.750
 131789226.011 6 102692916.115 5  25078656.026    25078657.020    25078656.093
  25078657.326          39.500          35.000
 130121855.010 6 101393664.577 5  24761364.642    24761367.697    24761365.138
  24761367.467          36.750          33.000
 124244165.608 6  96813633.557 6  23642880.568    23642884.411    23642881.019
  23642885.132          40.500          39.000
 116564834.940 7  90829746.012 6  22181547.400    22181546.890    22181547.887
  22181547.117          47.500          40.500
 122740676.731 6  95642092.406 6  23356773.877    23356777.113    23356774.695
  23356778.042          41.000          38.000
 19  9 29 16  1 30.0000000  0 10G13G19G12G05G02G15G09G06G29G25
 121746665.700 6  94867532.64143  23167614.874    23167615.227    23167615.379
                        41.750          23.000
                                                                  25553468.709
                        21.250
 125434379.034 7  97741057.031 5  23869372.198    23869373.041    23869372.595
  23869372.670          42.750          35.000
 105428242.965 8  82151886.370 8  20062321.322    20062320.580    20062321.608
  20062320.878          52.500          48.500
 111269969.608 8  86703873.68046  21173968.457    21173965.742    21173969.454
                        49.000          40.750
 131670889.840 6 102600706.149 5  25056137.057    25056138.224    25056137.186
  25056139.481          40.500          34.750
 130207157.091 6 101460133.744 5  24777596.835    24777600.344    24777597.349
  24777600.056          38.000          31.500
 124319360.806 6  96872227.159 6  23657190.271    23657193.947    23657190.713
  23657194.502          40.750          39.000
 116481913.302 8  90765131.764 6  22165767.893    22165767.665    22165768.366
  22165767.315          48.250          40.500
 122795709.752 6  95684975.222 6  23367246.101    23367249.309    23367246.950
  23367250.252          40.000          37.500
 19  9 29 16  2  0.0000000  0  9G13G12G05G02G15G09G06G29G25
 121642847.042 6  94786635.04143  23147858.442    23147858.748    23147858.938
                        41.750          23.000
 125531129.653 7  97816447.096 5  23887783.078    23887783.086    23887783.453
  23887783.941          42.500          34.500
 105423540.009 8  82148221.727 8  20061426.309    20061425.638    20061426.595
  20061425.862          52.500          48.500
 111285865.114 8  86716259.77546  21176993.164    21176990.741    21176994.165
                        48.750          40.750
 131552497.129 6 102508452.123 5  25033607.462    25033609.197    25033607.618
  25033609.603          41.500          34.750
 130292790.904 6 101526861.371 5  24793892.570    24793895.903    24793893.070
  24793897.184          39.750          31.000
 124394680.112 6  96930917.466 6  23671522.750    23671527.027    23671523.197
  23671527.244          40.000          39.500
 116399317.029 8  90700771.044 6  22150050.190    22150049.746    22150050.663
  22150050.152          48.500          40.500
 122851149.396 6  95728174.939 6  23377796.331    23377799.682    23377797.140
  23377800.368          40.250          38.250
 19  9 29 16  2 30.0000000  0  9G13G12G05G02G15G09G06G29G25
 121539188.791 7  94705862.42644  23128133.148    23128133.223    23128133.639
                        42.750          24.000
 125627968.621 7  97891905.949 5  23906210.649    23906210.773    23906211.060
  23906212.267          42.750          34.500
 105419289.412 8  82144909.569 8  20060617.625    20060616.802    20060617.906
  20060617.107          52.250          48.750
 111301978.688 8  86728815.79946  21180059.493    21180057.008    21180060.490
                        48.750          40.750
 131434050.615 6 102416156.256 5  25011067.942    25011069.635    25011068.165
  25011069.211          41.250          35.250
 130378753.840 6 101593845.435 5  24810250.962    24810254.010    24810251.534
  24810255.257          40.500          32.000
 124470123.409 6  96989704.414 6  23685879.283    23685883.279    23685879.716
  23685883.822          40.500          39.000
 116317048.773 8  90636665.920 6  22134395.147    22134394.788    22134395.620
  22134394.934          48.250          41.000
 122906993.070 6  95771689.443 6  23388422.335    23388426.051    23388423.153
  23388426.644          40.000          37.750
 19  9 29 16  3  0.0000000  0  9G13G12G05G02G15G09G06G29G25
 121435694.076 7  94625217.23243  23108438.821    23108438.954    23108439.308
                        42.250          23.500
 125724892.609 7  97967431.080 5  23924654.727    23924654.914    23924655.147
  23924655.675          42.250          33.500
 105415490.142 8  82141949.088 8  20059894.684    20059893.786    20059894.965
  20059894.312          52.250          48.750
 111318310.767 8  86741542.08746  21183167.543    21183164.911    21183168.540
                        49.000          40.750
 131315552.693 6 102323820.327 5  24988518.288    24988520.208    24988518.453
  24988520.689          41.250          35.000
 130465043.444 6 101661084.076 5  24826671.530    24826674.399    24826672.093
  24826674.473          40.500          32.250
 124545690.577 6  97048587.871 6  23700259.555    23700262.402    23700259.984
  23700264.042          41.500          38.750
 116235110.989 8  90572818.310 6  22118803.071    22118802.531    22118803.549
  22118802.820          48.500          41.500
 122963237.961 6  95815516.605 6  23399126.018    23399128.955    23399126.822
  23399130.035          39.500          38.750
 19  9 29 16  3 30.0000000  0  9G13G12G05G02G15G09G06G29G25
 121332365.839 6  94544701.77043  23088775.866    23088776.590    23088776.335
                        41.000          22.250
 125821898.422 7  98043020.012 5  23943114.269    23943114.756    23943114.675
  23943115.101          43.000          34.250
 105412141.685 8  82139339.900 8  20059257.426    20059256.571    20059257.707
  20059256.839          52.500          48.500
 111334862.229 8  86754439.32446  21186317.020    21186314.543    21186318.012
                        49.000          40.500
 131197005.657 6 102231446.172 5  24965959.285    24965961.114    24965959.459
  24965961.065          40.500          35.000
 130551657.103 6 101728575.234 5  24843153.970    24843156.227    24843154.443
  24843157.282          40.750          30.750
 124621381.565 6  97107567.802 6  23714663.234    23714666.438    23714663.685
  23714667.328          41.250          38.750
 116153506.685 8  90509230.560 6  22103274.093    22103273.654    22103274.571
  22103274.219          48.500          41.000
 123019881.435 6  95859654.335 6  23409904.431    23409908.186    23409905.240
  23409908.866          40.000          38.250
 19  9 29 16  4  0.0000000  0  9G13G12G05G02G15G09G06G29G25
 121229207.476 7  94464318.67443  23069145.576    23069146.087    23069146.058
                        43.000          23.750
 125918983.365 7  98118670.530 5  23961589.096    23961589.587    23961589.467
  23961589.846          43.250          34.500
 105409242.913 8  82137081.118 8  20058705.779    20058704.956    20058706.060
  20058705.431          52.750          48.750
 111351633.785 8  86767508.05546  21189508.649    21189506.012    21189509.641
                        49.000          40.750
 131078411.788 6 102139035.566 5  24943392.059    24943392.848    24943392.215
  24943393.675          41.750          34.750
 130638592.343 6 101796316.930 5  24859696.940    24859700.001    24859697.400
  24859700.175          41.250          33.250
 124697196.244 6  97166644.122 6  23729089.419    23729093.757    23729089.852
  23729094.819          40.250          39.000
 116072238.390 8  90445904.624 6  22087809.194    22087808.874    22087809.667
  22087809.248          48.750          41.000
 123076920.764 6  95904100.525 6  23420759.097    23420762.580    23420759.897
  23420763.050          40.000          39.000
 19  9 29 16  4 30.0000000  0  9G13G12G05G02G15G09G06G29G25
 121126222.139 7  94384070.38744  23049548.010    23049548.499    23049548.483
                        43.500          24.500
 126016143.334 7  98194379.534 5  23980078.736    23980078.861    23980079.084
  23980078.892          42.500          33.750
 105406792.577 8  82135171.758 8  20058239.346    20058238.655    20058239.632
  20058239.010          52.500          48.500
 111368625.988 8  86780748.71846  21192742.049    21192739.532    21192743.041
                        49.250          40.500
 130959773.756 6 102046590.478 5  24920815.728    24920816.100    24920815.942
  24920816.461          41.250          34.250
 130725846.554 6 101864307.218 5  24876300.619    24876303.632    24876301.070
  24876303.881          39.750          32.000
 124773134.517 6  97225816.744 6  23743540.772    23743544.713    23743541.183
  23743545.121          41.000          38.250
 115991308.655 8  90382842.500 6  22072408.822    22072408.338    22072409.304
  22072408.340          48.750          41.000
 123134353.181 6  95948853.032 6  23431688.134    23431691.016    23431688.894
  23431692.098          40.500          38.250
 19  9 29 16  5  0.0000000  0  9G13G12G05G02G15G09G06G29G25
 121023412.671 7  94303959.13044  23029984.121    23029984.390    23029984.586
                        43.250          24.250
 126113375.685 6  98270144.961 5  23998581.603    23998581.876    23998581.947
  23998581.460          41.000          33.250
 105404790.454 8  82133611.670 8  20057858.511    20057857.687    20057858.797
  20057858.163          52.750          48.750
 111385839.397 8  86794161.75346  21196017.808    21196015.201    21196018.800
                        49.000          40.750
 130841094.169 6 101954113.081 5  24898231.896    24898232.335    24898232.177
  24898233.201          41.500          34.000
 130813417.233 6 101932544.085 5  24892965.284    24892968.068    24892965.726
  24892967.304          40.000          31.500
 124849196.284 6  97285085.624 6  23758014.707    23758018.242    23758015.122
  23758019.051          40.750          39.000
 115910720.366 8  90320046.435 6  22057073.322    22057073.061    22057073.800
  22057073.419          49.000          41.000
 123192175.925 6  95993909.701 6  23442691.414    23442694.601    23442692.169
  23442695.310          40.000          38.750
 19  9 29 16  5 30.0000000  0  9G13G12G05G02G15G09G06G29G25
 120920782.831 7  94223987.84643  23010454.218    23010454.489    23010454.696
                        43.000          23.250
 126210677.545 6  98345964.534 5  24017096.700    24017096.866    24017097.102
  24017097.100          40.750          32.250
 105403234.727 8  82132399.412 8  20057562.517    20057561.679    20057562.807
  20057562.073          52.500          48.750
 111403274.918 8  86807747.87046  21199335.551    21199333.042    21199336.552
                        49.000          40.500
 130722375.521 6 101861605.139 5  24875640.112    24875641.425    24875640.469
  24875641.381          41.250          33.750
 130901301.821 6 102001025.589 5  24909688.447    24909691.994    24909688.916
  24909690.891          39.500          31.500
 124925381.440 6  97344450.595 6  23772511.918    23772515.703    23772512.333
  23772517.213          41.750          39.000
 115830475.969 8  90257518.363 6  22041803.590    22041802.832    22041804.059
  22041803.340          48.750          41.250
 123250386.269 6  96039268.373 6  23453768.421    23453772.434    23453769.216
  23453772.051          40.000          38.500
 19  9 29 16  6  0.0000000  0  9G13G12G05G02G15G09G06G29G25
 120818335.019 7  94144158.40844  22990959.154    22990959.404    22990959.645
                        42.750          24.000
 126308045.317 6  98421835.513 5  24035625.335    24035624.574    24035625.777
  24035625.370          40.500          31.750
 105402124.628 8  82131534.389 8  20057351.123    20057350.453    20057351.413
  20057350.949          52.500          48.750
 111420932.977 8  86821507.38846  21202695.884    21202693.154    21202696.876
                        48.750          40.500
 130603620.082 6 101769068.569 5  24853041.465    24853042.762    24853041.813
  24853043.114          40.500          34.250
 130989497.786 6 102069749.663 4  24926471.326    24926475.277    24926471.715
  24926474.466          39.750          29.500
 125001689.823 6  97403911.636 6  23787033.858    23787037.583    23787034.264
  23787037.355          41.750          38.500
 115750578.223 8  90195260.379 6  22026599.342    22026598.868    22026599.815
  22026599.210          48.750          41.000
 123308981.444 6  96084926.903 6  23464919.470    23464922.049    23464920.261
  23464922.873          39.250          37.500
 19  9 29 16  6 30.0000000  0  9G13G12G05G02G15G09G06G29G25
 120716072.615 7  94064473.45844  22971499.296    22971499.422    22971499.801
                        43.250          24.500
 126405476.134 6  98497755.575 5  24054165.856    24054166.273    24054166.204
  24054166.619          41.250          33.750
 105401459.693 8  82131016.258 8  20057224.626    20057223.861    20057224.916
  20057224.131          52.500          48.750
 111438814.200 8  86835440.79846  21206098.496    21206095.893    21206099.488
                        48.500          40.250
 130484830.452 6 101676505.340 5  24830436.820    24830437.404    24830437.124
  24830438.292          40.500          34.000
 131078002.495 6 102138714.397 4  24943313.280    24943316.579    24943313.798
  24943316.993          37.750          29.000
 125078121.381 6  97463468.654 6  23801578.305    23801582.170    23801578.743
  23801582.414          40.750          38.750
 115671029.765 8  90133274.578 6  22011462.105    22011461.352    22011462.565
  22011461.649          48.500          41.500
 123367958.631 6  96130883.140 6  23476141.306    23476145.683    23476142.119
  23476145.712          39.750          38.500
 19  9 29 16  7  0.0000000  0  9G13G12G05G02G15G09G06G29G25
 120613998.919 7  93984935.52144  22952075.320    22952075.476    22952075.807
                        43.750          24.500
 126502966.764 6  98573722.254 5  24072718.327    24072718.820    24072718.626
  24072717.913          40.500          33.250
 105401238.803 8  82130844.134 8  20057182.410    20057181.864    20057182.696
  20057182.320          52.500          48.750
 111456919.521 8  86849548.83346  21209543.928    21209541.256    21209544.916
                        49.000          40.500
 130366009.158 6 101583917.378 5  24807826.123    24807826.466    24807826.359
  24807827.502          41.000          34.250
 131166813.462 6 102207917.718 4  24960214.670    24960216.277    24960215.108
  24960217.719          36.500          28.250
 125154676.027 6  97523121.553 6  23816145.343    23816149.514    23816145.745
  23816150.291          41.000          38.500
 115591833.350 8  90071563.084 6  21996391.075    21996390.871    21996391.531
  21996391.063          49.000          41.750
 123427315.045 6  96177134.843 6  23487437.242    23487440.362    23487438.046
  23487440.695          39.750          38.250
 19  9 29 16  7 30.0000000  0  9G13G12G05G02G15G09G06G29G25
 120512117.210 7  93905547.18244  22932687.930    22932687.750    22932688.377
                        43.000          24.500
 126600513.888 6  98649732.927 5  24091279.970    24091281.299    24091280.390
  24091282.360          41.500          32.750
 105401460.838 8  82131017.149 8  20057224.735    20057224.125    20057225.025
  20057224.436          52.250          49.000
 111475249.389 8  86863831.83946  21213031.774    21213029.189    21213032.762
                        48.750          40.500
 130247158.588 6 101491306.653 5  24785209.025    24785210.448    24785209.217
  24785210.396          40.750          35.250
 131255928.137 6 102277357.640 5  24977172.413    24977174.243    24977172.833
  24977175.308          37.750          30.250
 125231353.567 6  97582870.238 6  23830736.910    23830740.825    23830737.294
  23830742.060          40.750          38.500
 115512991.552 8  90010127.938 6  21981388.043    21981387.866    21981388.512
  21981387.898          49.250          41.500
 123487047.912 6  96223679.899 6  23498803.854    23498807.106    23498804.627
  23498807.493          39.000          38.000
 19  9 29 16  8  0.0000000  0  9G13G12G05G02G15G09G06G29G25
 120410430.278 7  93826310.64444  22913337.006    22913337.452    22913337.488
                        43.000          24.750
 126698114.878 6  98725785.612 5  24109853.182    24109853.946    24109853.709
  24109853.551          40.000          32.000
 105402124.731 8  82131534.472 8  20057351.208    20057350.462    20057351.498
  20057350.926          52.500          48.500
 111493804.435 8  86878290.31146  21216562.636    21216560.210    21216563.619
                        48.750          40.500
 130128281.501 6 101398675.261 5  24762587.185    24762588.563    24762587.305
  24762588.431          40.250          35.000
 131345343.882 6 102347032.265 5  24994187.043    24994189.353    24994187.405
  24994191.434          36.000          30.250
 125308153.939 6  97642714.622 6  23845351.818    23845355.040    23845352.215
  23845355.827          41.500          37.750
 115434506.979 8  89948971.140 6  21966452.983    21966452.576    21966453.448
  21966452.784          48.750          41.250
 123547154.376 6  96270516.076 6  23510241.829    23510244.989    23510242.611
  23510245.855          40.000          38.500
 19  9 29 16  8 30.0000000  0  9G13G12G05G02G15G09G06G29G25
 120308941.379 7  93747228.41344  22894024.817    22894024.890    22894025.290
                        43.500          25.500
 126795766.197 6  98801877.539 5  24128435.802    24128436.498    24128436.378
  24128436.768          41.250          32.250
 105403229.517 8  82132395.342 8  20057561.459    20057560.588    20057561.754
  20057561.154          52.500          48.750
 111512585.654 8  86892925.02146  21220136.800    21220134.261    21220137.783
                        48.500          40.500
 130009380.438 6 101306025.140 5  24739961.322    24739962.121    24739961.456
  24739961.955          40.000          34.750
 131435058.128 5 102416939.406 5  25011260.472    25011261.735    25011260.655
  25011262.097          34.500          31.000
 125385077.021 6  97702654.620 6  23859989.968    23859993.138    23859990.330
  23859995.312          41.000          38.250
 115356382.296 8  89888094.758 6  21951586.385    21951585.803    21951586.841
  21951586.042          49.000          41.500
 123607631.613 6  96317641.170 6  23521750.215    23521753.765    23521750.961
  23521754.237          39.250          38.500
 19  9 29 16  9  0.0000000  0  9G13G12G05G02G15G09G06G29G25
 120207653.732 7  93668302.99544  22874750.168    22874750.287    22874750.659
                        43.750          25.250
 126893464.764 6  98878006.242 5  24147026.538    24147027.466    24147027.074
  24147028.563          41.750          33.500
 105404773.892 8  82133598.746 8  20057855.409    20057854.503    20057855.704
  20057855.025          53.000          48.500
 111531593.453 8  86907736.29146  21223753.758    21223751.335    21223754.737
                        49.250          40.250
 129890457.772 6 101213358.189 5  24717330.953    24717331.883    24717331.149
  24717331.733          40.250          34.500
 131525068.341 5 102487077.180 5  25028387.444    25028390.227    25028387.716
  25028391.634          35.500          31.750
 125462122.711 6  97762690.164 6  23874651.145    23874655.839    23874651.516
  23874655.487          41.500          38.750
 115278620.408 8  89827501.081 6  21936788.851    21936788.158    21936789.307
  21936788.468          49.500          41.250
 123668476.798 6  96365052.993 6  23533329.153    23533331.748    23533329.922
  23533332.368          39.500          36.500
 19  9 29 16  9 30.0000000  0  9G13G12G05G02G15G09G06G29G25
 120106570.310 7  93589536.71244  22855514.475    22855514.865    22855514.948
                        43.250          24.750
 126991207.806 6  98954169.565 5  24165627.754    24165627.564    24165628.286
  24165627.953          38.750          33.750
 105406757.312 8  82135144.265 8  20058232.794    20058232.025    20058233.089
  20058232.253          52.750          48.750
 111550828.557 8  86922724.67746  21227414.289    21227411.599    21227415.268
                        48.750          40.250
 129771516.139 6 101120676.484 5  24694696.903    24694697.576    24694697.171
  24694698.101          40.250          33.500
 131615371.903 5 102557443.573 5  25045571.710    25045574.543    25045572.005
  25045574.078          35.000          31.250
 125539290.857 7  97822821.135 6  23889335.821    23889340.701    23889336.196
  23889340.570          42.250          37.750
 115201223.510 8  89767191.826 6  21922060.654    21922060.105    21922061.105
  21922060.370          49.250          41.250
 123729687.095 6  96412749.274 6  23544976.431    23544979.744    23544977.218
  23544981.051          40.500          38.250
 19  9 29 16 10  0.0000000  0  9G13G12G05G02G15G09G06G29G25
 120005694.426 7  93510932.15844  22836318.544    22836318.708    22836319.031
                        43.000          24.750
 127088991.939 6  99030364.947 5  24184234.934    24184235.023    24184235.416
  24184234.891          38.750          32.000
 105409178.464 8  82137030.877 8  20058693.604    20058692.870    20058693.899
  20058693.131          52.250          48.500
 111570291.404 8  86937890.52546  21231117.840    21231115.194    21231118.819
                        48.750          40.500
 129652558.300 6 101027982.092 5  24672059.289    24672059.652    24672059.633
  24672061.044          40.750          34.000
 131705966.216 5 102628036.516 5  25062811.740    25062814.155    25062811.963
  25062814.525          34.250          31.000
 125616581.337 6  97883047.423 6  23904043.798    23904047.577    23904044.146
  23904047.834          41.500          36.500
 115124194.600 8  89707169.307 6  21907402.496    21907402.108    21907402.952
  21907402.184          49.000          41.250
 123791259.622 6  96460727.830 6  23556693.491    23556697.005    23556694.260
  23556697.092          38.000          37.750
 19  9 29 16 10 30.0000000  0  9G13G12G05G02G15G09G06G29G25
 119905029.394 7  93432491.88744  22817162.883    22817162.908    22817163.361
                        42.750          25.500
 127186813.750 6  99106589.634 5  24202849.796    24202849.404    24202850.252
  24202851.238          38.000          33.250
 105412036.457 8  82139257.871 8  20059237.390    20059236.700    20059237.680
  20059237.124          52.250          49.000
 111589983.025 8  86953234.63446  21234864.868    21234862.503    21234865.851
                        48.500          40.750
 129533586.366 6 100935276.739 5  24649419.760    24649420.274    24649420.086
  24649422.344          39.750          33.750
 131796848.729 5 102698854.026 5  25080105.896    25080108.509    25080106.191
  25080108.816          33.500          30.500
 125693994.010 6  97943368.931 6  23918775.527    23918778.260    23918775.884
  23918779.138          40.750          36.000
 115047536.245 8  89647435.527 6  21892814.722    21892814.593    21892815.191
  21892814.602          48.750          41.750
 123853191.529 6  96508986.456 6  23568478.620    23568482.123    23568479.384
  23568482.439          40.250          38.000
 19  9 29 16 11  0.0000000  0  9G13G12G05G02G15G09G06G29G25
 119804578.208 7  93354218.25944  22798047.557    22798047.669    22798048.026
                        44.000          26.750
 127284670.727 6  99182841.762 5  24221471.110    24221471.669    24221471.566
  24221471.862          38.500          34.250
 105415330.135 8  82141824.372 8  20059864.231    20059863.425    20059864.521
  20059863.956          52.500          48.500
 111609903.859 8  86968757.35546  21238655.922    21238653.348    21238656.901
                        48.500          40.500
 129414603.278 6 100842562.734 5  24626778.785    24626778.271    24626779.066
  24626779.930          40.250          33.500
 131888016.877 5 102769894.052 5  25097454.414    25097457.371    25097454.816
  25097457.968          33.750          30.750
 125771528.795 6  98003785.621 6  23933529.350    23933533.237    23933529.716
  23933534.236          41.250          37.500
 114971250.869 8  89587992.385 6  21878298.119    21878297.819    21878298.597
  21878298.358          49.250          41.750
 123915479.965 6  96557522.825 6  23580332.196    23580335.120    23580332.938
  23580336.144          37.500          38.000
 19  9 29 16 11 30.0000000  0  9G13G12G05G02G15G09G06G29G25
 119704343.709 7  93276113.48544  22778973.481    22778973.476    22778973.954
                        43.500          25.250
 127382559.522 6  99259118.666 5  24240099.246    24240099.970    24240099.746
  24240099.967          37.500          33.750
 105419058.347 8  82144729.475 8  20060573.636    20060572.884    20060573.926
  20060573.217          52.500          49.000
 111630054.525 8  86984459.16146  21242490.402    21242487.737    21242491.390
                        48.750          40.500
 129295611.355 6 100749841.762 5  24604134.972    24604135.276    24604135.200
  24604135.839          40.000          34.000
 131979467.996 5 102841154.620 5  25114856.663    25114860.077    25114857.123
  25114861.369          33.750          30.500
 125849185.537 6  98064297.279 5  23948306.869    23948310.832    23948307.235
  23948311.734          40.000          35.750
 114895341.485 8  89528842.220 6  21863853.202    21863852.542    21863853.684
  21863852.881          49.000          41.750
 123978122.002 6  96606334.783 6  23592252.111    23592255.969    23592252.875
  23592256.531          38.750          38.250
 19  9 29 16 12  0.0000000  0  9G13G12G05G02G15G09G06G29G25
 119604329.261 7  93198180.16344  22759941.141    22759941.342    22759941.610
                        43.750          24.500
 127480477.126 6  99335418.032 5  24258732.842    24258733.006    24258733.289
  24258734.228          39.500          34.000
 105423219.838 8  82147972.190 8  20061365.524    20061364.763    20061365.814
  20061365.180          52.750          48.750
 111650435.708 8  87000340.59246  21246368.762    21246366.172    21246369.750
                        49.000          40.500
 129176613.326 6 100657116.091 5  24581490.841    24581490.684    24581491.028
  24581491.565          40.500          33.500
 132071199.575 5 102912633.690 4  25132312.649    25132316.361    25132312.930
  25132317.380          33.000          29.750
 125926964.101 6  98124903.928 6  23963107.866    23963111.035    23963108.263
  23963111.928          41.000          36.500
 114819810.530 8  89469986.939 6  21849480.120    21849479.522    21849480.598
  21849479.906          49.500          41.250
 124041114.782 6  96655420.038 6  23604239.333    23604243.325    23604240.079
  23604243.280          39.500          37.500
 19  9 29 16 12 30.0000000  0  9G13G12G05G02G15G09G06G29G25
 119504538.497 7  93120421.13644  22740951.889    22740951.833    22740952.349
                        44.250          26.000
 127578420.377 6  99411737.378 5  24277369.308    24277370.626    24277369.755
  24277371.529          38.750          33.250
 105427814.194 8  82151552.208 8  20062239.738    20062239.037    20062240.033
  20062239.227          52.500          48.250
 111671048.320 8  87016402.35646  21250291.246    21250288.716    21250292.238
                        48.750          40.250
 129057611.694 6 100564387.575 5  24558845.279    24558845.122    24558845.448
  24558847.041          40.250          34.250
 132163208.952 5 102984329.365 4  25149822.483    25149825.245    25149822.898
  25149825.754          33.000          28.250
 126004864.404 6  98185605.378 6  23977931.950    23977936.230    23977932.334
  23977936.861          40.750          37.250
 114744660.441 8  89411428.443 6  21835179.375    21835178.974    21835179.862
  21835179.558          49.250          41.750
 124104455.404 6  96704776.327 6  23616292.939    23616296.011    23616293.694
  23616296.877          38.750          37.250
 19  9 29 16 13  0.0000000  0  9G13G12G05G02G15G09G06G29G25
 119404973.885 7  93042838.34044  22722005.343    22722005.541    22722005.794
                        44.250          27.000
 127676386.121 6  99488074.250 5  24296012.358    24296013.541    24296012.733
  24296013.101          38.500          33.500
 105432839.888 8  82155468.332 8  20063196.055    20063195.396    20063196.350
  20063195.848          53.000          48.750
 111691892.598 8  87032644.64246  21254257.772    21254255.246    21254258.769
                        48.750          40.250
 128938609.099 6 100471658.281 5  24536199.586    24536199.962    24536199.720
  24536200.659          39.500          34.250
 132255493.627 5 103056239.441 4  25167384.322    25167386.711    25167384.791
  25167386.186          31.000          29.000
 126082886.228 6  98246401.582 6  23992778.780    23992783.336    23992779.173
  23992783.598          41.250          37.500
 114669893.963 8  89353168.862 6  21820952.027    21820951.532    21820952.505
  21820951.583          49.500          41.500
 124168140.885 6  96754401.348 6  23628412.164    23628415.419    23628412.919
  23628415.853          38.500          37.500
 19  9 29 16 13 30.0000000  0  9G13G12G05G02G15G09G06G29G25
 119305638.611 7  92965434.27444  22703102.381    22703102.490    22703102.814
                        44.000          26.000
 127774371.608 6  99564426.522 5  24314658.935    24314659.603    24314659.337
  24314660.309          40.250          32.750
 105438295.854 8  82159719.727 8  20064234.417    20064233.672    20064234.712
  20064234.181          52.500          48.750
 111712969.516 8  87049068.20946  21258268.676    21258266.135    21258269.673
                        48.500          40.000
 128819608.001 6 100378930.198 5  24513554.844    24513554.682    24513554.937
  24513556.078          40.750          33.250
 132348051.036 5 103128362.079 4  25184996.565    25184999.731    25184997.132
  25184999.974          30.250          25.750
 126161029.484 6  98307292.371 6  24007648.812    24007653.046    24007649.218
  24007653.285          40.500          36.500
 114595513.803 8  89295210.292 6  21806797.967    21806797.407    21806798.440
  21806797.683          49.500          41.750
 124232168.429 6  96804292.913 6  23640595.841    23640599.048    23640596.623
  23640599.739          39.250          36.500
 19  9 29 16 14  0.0000000  0  9G13G12G05G02G15G09G06G29G25
 119206536.147 7  92888211.59644  22684243.766    22684244.084    22684244.204
                        44.750          26.750
 127872373.537 6  99640791.552 5  24333307.871    24333308.773    24333308.273
  24333308.633          38.000          32.750
 105444181.165 8  82164305.681 8  20065354.174    20065353.652    20065354.473
  20065354.136          52.500          48.750
 111734279.582 8  87065673.44746  21262323.801    21262321.226    21262324.807
                        48.500          40.250
 128700611.086 6 100286205.340 5  24490910.583    24490910.032    24490910.703
  24490911.577          41.250          33.500
 132440878.457 4 103200695.105 4  25202660.473    25202663.869    25202661.201
  25202665.795          27.500          26.500
 126239294.065 6  98368277.701 6  24022542.246    24022546.210    24022542.648
  24022547.206          40.500          36.500
 114521522.687 8  89237554.900 7  21792717.779    21792717.381    21792718.257
  21792717.159          49.250          42.000
 124296535.018 6  96854448.672 6  23652844.532    23652847.707    23652845.372
  23652848.376          38.500          38.250
 19  9 29 16 14 30.0000000  0  9G13G12G05G02G15G09G06G29G25
 119107669.680 7  92811172.79644  22665430.050    22665430.076    22665430.479
                        44.500          26.250
 127970388.917 6  99717167.164 5  24351959.436    24351960.287    24351959.802
  24351962.076          38.500          33.000
 105450494.097 8  82169224.844 8  20066555.577    20066554.931    20066555.881
  20066555.337          52.500          48.750
 111755823.642 8  87082461.01446  21266423.594    21266420.971    21266424.600
                        48.750          40.250
 128581620.733 6 100193485.642 5  24468266.953    24468267.747    24468267.136
  24468267.684          41.500          34.500
 132533973.331 4                                                  25220378.404
                        24.500
 126317679.784 6  98429357.426 6  24037459.070    24037462.908    24037459.472
  24037462.927          41.000          36.750
 114447923.022 8  89180204.518 7  21778712.427    21778711.758    21778712.905
  21778712.276          49.500          42.000
 124361237.738 6  96904866.326 6  23665157.241    23665160.740    23665158.077
  23665160.790          39.000          37.250
                            4  1
RINEX FILE SPLICE; other post-header comments skipped       COMMENT
 19  9 29 16 15  0.0000000  0  9G13G12G05G02G15G09G06G29G25
 119009042.010 7  92734320.08944  22646662.124    22646661.742    22646662.562
                        44.000          26.500
 128068414.731 6  99793550.848 5  24370614.200    24370613.821    24370614.517
  24370614.858          37.500          34.000
 105457233.641 8  82174476.435 8  20067837.998    20067837.411    20067838.297
  20067837.849          52.500          48.500
 111777602.357 8  87099431.42846  21270567.798    21270565.427    21270568.808
                        48.750          40.000
 128462639.935 6 100100773.335 5  24445625.231    24445626.827    24445625.490
  24445627.155          40.750          34.750
 132627333.046 4 103345984.397 4                                  25238141.794
  25238144.684          27.000          25.000
 126396186.460 6  98490531.435 6  24052398.601    24052402.228    24052399.003
  24052402.645          41.500          36.000
 114374717.507 8  89123161.265 7  21764781.551    21764781.125    21764782.033
  21764781.574          49.500          42.000
 124426273.675 6  96955543.639 6  23677532.727    23677536.309    23677533.567
  23677537.414          38.500          36.750
 19  9 29 16 15 30.0000000  0  9G13G12G05G02G15G09G06G29G25
 118910656.366 7  92657655.97244  22627939.581    22627939.970    22627939.996
                        44.000          26.500
 128166448.046 6  99869940.378 5  24389268.154    24389269.310    24389268.408
  24389269.555          38.000          33.250
 105464398.979 8  82180059.810 8  20069201.743    20069200.911    20069202.042
  20069201.321          52.500          48.750
 111799616.461 8  87116585.27246  21274757.016    21274754.452    21274758.031
                        48.750          39.750
 128343671.164 6 100008070.417 5  24422986.993    24422988.071    24422987.212
  24422988.285          40.000          34.750
 132720954.946 4 103418936.545 4                                  25255954.383
  25255960.719          25.750          24.750
 126474813.998 6  98551799.572 6  24067360.385    24067363.839    24067360.769
  24067365.095          39.750          36.250
 114301908.624 8  89066427.067 6  21750926.490    21750926.106    21750926.981
  21750926.239          49.750          41.750
 124491639.773 6  97006478.230 6  23689971.936    23689975.111    23689972.727
  23689976.480          39.000          37.000
 19  9 29 16 16  0.0000000  0  9G13G12G05G02G15G09G06G29G25
 118812515.861 7  92581182.87644  22609264.245    22609264.601    22609264.669
                        44.250          26.750
 128264485.680 5  99946333.313 5  24407925.557    24407925.263    24407925.798
  24407925.515          33.500          34.000
 105471989.331 8  82185974.367 8  20070646.389    20070645.286    20070646.688
  20070645.743          52.250          48.750
 111821866.144 8  87133922.68146  21278991.030    21278988.412    21278992.045
                        49.000          40.000
 128224716.850 6  99915378.763 5  24400350.530    24400351.143    24400350.686
  24400350.925          39.250          34.750
                 103492090.981 4                                  25273832.033
  25273826.709          22.750          25.750
 126553562.226 6  98613161.779 6  24082345.537    24082349.632    24082345.934
  24082350.828          39.000          36.500
 114229499.163 8  89010004.112 7  21737147.567    21737147.155    21737148.058
  21737147.338          49.500          42.000
 124557333.214 6  97057667.887 6  23702472.416    23702475.925    23702473.229
  23702476.949          38.500          37.750
 19  9 29 16 16 30.0000000  0  9G13G12G05G02G15G09G06G29G25
 118714623.599 7  92504903.19944  22590636.013    22590636.090    22590636.446
                        44.750          26.500
 128362524.561 6 100022727.126 5  24426580.605    24426581.468    24426580.882
  24426582.059          37.750          33.500
 105480003.038 8  82192218.811 8  20072171.075    20072170.248    20072171.370
  20072170.752          53.000          48.500
 111844352.393 8  87151444.42946  21283269.981    21283267.567    21283271.000
                        49.250          40.000
 128105779.780 6  99822700.572 6  24377717.424    24377718.356    24377717.576
  24377719.319          39.500          36.000
                                                                  25291745.840
  25291741.417          18.000          22.500
 126632431.001 6  98674617.935 5  24097354.478    24097358.057    24097354.844
  24097358.400          40.750          34.750
 114157491.657 8  88953894.381 7  21723444.871    21723444.529    21723445.358
  21723444.741          50.000          42.250
 124623350.959 6  97109110.243 6  23715035.454    23715039.396    23715036.281
  23715039.619          39.000          38.500
 19  9 29 16 17  0.0000000  0  9G13G12G05G02G15G09G06G29G25
 118616982.892 7  92428819.54644  22572055.329    22572055.617    22572055.789
                        44.500          26.500
 128460561.720 6 100099119.639 5  24445237.152    24445237.296    24445237.406
  24445238.360          37.250          34.000
 105488439.098 8  82198792.365 8  20073776.344    20073775.556    20073776.639
  20073775.949          52.500          48.500
 111867075.922 8  87169151.06746  21287593.819    21287591.559    21287594.838
                        48.750          39.750
 127986862.607 6  99730037.935 5  24355087.781    24355089.746    24355087.865
  24355089.727          39.250          34.750
                                                                  25309703.362
  25309705.267          21.750          22.500
 126711420.168 6  98736167.877 5  24112385.259    24112388.790    24112385.634
  24112389.227          40.500          35.000
 114085888.492 8  88898099.706 7  21709819.217    21709818.807    21709819.699
  21709819.087          49.750          42.000
 124689690.018 6  97160802.997 6  23727659.466    23727662.832    23727660.293
  23727663.252          39.000          36.250
 19  9 29 16 17 30.0000000  0  9G13G12G05G02G15G09G06G29G25
 118519596.832 7  92352934.32544  22553523.440    22553523.720    22553523.918
                        44.500          27.000
 128558594.244 6 100175508.577 5  24463891.755    24463892.212    24463892.081
  24463892.873          37.500          34.750
 105497296.004 8  82205693.849 8  20075461.841    20075460.906    20075462.136
  20075461.392          52.250          48.500
 111890037.343 8  87187043.08046  21291963.574    21291961.005    21291964.593
                        48.500          39.500
 127867968.109 6  99637392.949 5  24332463.967    24332464.467    24332464.056
  24332464.611          39.500          34.500
                                                                  25327757.641
  25327712.844          22.250          20.000
 126790529.562 6  98797811.549 5  24127439.456    24127442.793    24127439.840
  24127443.658          40.500          35.500
 114014692.549 8  88842622.353 7  21696271.229    21696270.595    21696271.707
  21696271.148          49.750          42.000
 124756347.423 6  97212743.792 6  23740343.783    23740347.416    23740344.574
  23740348.245          38.250          38.000
 19  9 29 16 18  0.0000000  0  9G13G12G05G02G15G09G06G29G25
 118422468.548 7  92277249.96644  22535040.912    22535040.433    22535041.385
                        44.750          27.250
 128656618.965 6 100251891.400 5  24482545.276    24482545.402    24482545.606
  24482546.477          38.000          34.750
 105506572.271 8  82212922.107 8  20077226.986    20077226.173    20077227.276
  20077226.619          52.500          48.750
 111913236.983 8  87205120.71146  21296378.203    21296375.816    21296379.222
                        48.750          40.000
 127749098.762 6  99544767.559 5  24309843.161    24309844.022    24309843.295
  24309844.074          39.750          34.750
                                                                  25345781.397
  25345779.299          21.250          19.500
 126869759.027 6  98859548.746 6  24142516.525    24142520.488    24142516.905
  24142521.201          41.000          36.250
 113943906.211 8  88787464.179 7  21682800.943    21682800.454    21682801.421
  21682800.857          50.000          42.500
 124823320.251 6  97264930.347 6  23753088.353    23753091.952    23753089.117
  23753092.652          38.750          37.750
 19  9 29 16 18 30.0000000  0  8G13G12G05G02G15G06G29G25
 118325600.976 7  92201768.76544  22516606.813    22516607.283    22516607.309
                        44.250          27.250
 128754633.132 6 100328266.009 6  24501196.790    24501197.300    24501197.138
  24501197.713          38.250          36.250
 105516267.412 8  82220476.761 8  20079071.853    20079071.182    20079072.134
  20079071.612          52.000          48.750
 111936675.876 8  87223384.76946  21300838.671    21300836.085    21300839.690
                        48.250          40.000
 127630257.158 6  99452163.830 5  24287228.566    24287229.024    24287228.726
  24287229.308          38.750          33.750
 126949108.380 6  98921379.348 5  24157615.937    24157620.204    24157616.308
  24157619.958          40.250          34.250
 113873532.270 8  88732627.343 7  21669409.118    21669408.803    21669409.614
  21669408.801          49.500          42.500
 124890605.406 6  97317360.302 6  23765892.583    23765896.166    23765893.334
  23765896.597          39.000          38.000
 19  9 29 16 19  0.0000000  0  8G13G12G05G02G15G06G29G25
 118228997.452 7  92126493.32044  22498224.110    22498224.241    22498224.619
                        43.750          26.750
 128852633.496 6 100404629.835 6  24519845.224    24519846.850    24519845.586
  24519846.466          37.750          36.750
 105526380.046 8  82228356.728 8  20080996.220    20080995.536    20080996.501
  20080995.918          52.000          48.500
 111960354.568 8  87241835.68646  21305344.344    21305342.027    21305345.363
                        48.500          40.000
 127511445.764 6  99359583.653 5  24264619.511    24264619.423    24264619.600
  24264619.634          38.500          33.500
 127028577.503 6  98983303.272 5  24172738.535    24172741.229    24172738.910
  24172742.704          40.000          33.750
 113803572.879 8  88678113.546 7  21656096.516    21656096.005    21656096.998
  21656096.347          49.500          42.500
 124958199.917 6  97370031.326 6  23778755.636    23778758.900    23778756.387
  23778759.921          39.250          37.500
 19  9 29 16 19 30.0000000  0  8G13G12G05G02G15G06G29G25
 118132661.315 7  92051426.20544  22479892.442    22479891.653    22479892.951
                        45.500          28.000
 128950617.241 6 100480980.734 6  24538491.201    24538491.992    24538491.558
  24538492.622          40.250          37.000
 105536908.989 8  82236561.101 8  20082999.897    20082999.042    20083000.169
  20082999.581          52.250          48.500
 111984273.666 8  87260473.93646  21309896.136    21309893.719    21309897.155
                        48.750          40.000
 127392667.355 6  99267029.159 5  24242017.266    24242016.046    24242017.301
  24242016.925          38.500          33.500
 127108166.170 6  99045320.381 5  24187884.157    24187887.129    24187884.546
  24187887.247          40.000          34.500
 113734030.969 8  88623925.054 7  21642863.128    21642862.537    21642863.619
  21642862.892          49.750          42.250
 125026100.799 6  97422941.072 6  23791676.891    23791680.172    23791677.673
  23791680.710          38.000          37.750
 19  9 29 16 20  0.0000000  0  8G13G12G05G02G15G06G29G25
 118036595.252 7  91976569.55444  22461611.428    22461611.343    22461611.919
                        44.750          28.000
 129048581.397 6 100557316.345 6  24557133.661    24557134.732    24557134.045
  24557135.085          40.250          37.000
 105547852.792 8  82245088.736 8  20085082.396    20085081.598    20085082.668
  20085082.035          52.250          48.500
 112008433.846 8  87279300.03646  21314493.723    21314491.294    21314494.738
                        48.750          40.000
 127273924.457 6  99174502.305 5  24219420.304    24219419.734    24219420.375
  24219420.966          40.000          34.250
 127187874.243 6  99107430.542 5  24203052.370    24203056.294    24203052.750
  24203055.921          40.250          35.750
 113664908.923 8  88570063.729 7  21629709.652    21629709.032    21629710.139
  21629709.628          50.000          42.500
 125094305.022 6  97476087.157 6  23804655.215    23804658.726    23804656.006
  23804659.450          39.000          37.000
 19  9 29 16 20 30.0000000  0  8G13G12G05G02G15G06G29G25
 117940802.577 7  91901925.93244  22443382.380    22443382.532    22443382.867
                        44.250          27.000
 129146522.812 6 100633634.263 6  24575770.445    24575771.882    24575770.842
  24575772.539          41.000          36.500
 105559210.241 8  82253938.690 8  20087243.686    20087242.970    20087243.958
  20087243.238          52.250          48.500
 112032835.910 8  87298314.62046  21319137.087    21319134.792    21319138.106
                        48.750          40.000
 127155220.352 6  99082005.742 5  24196831.365    24196831.632    24196831.490
  24196832.576          39.000          34.750
 127267701.521 6  99169633.550 5  24218242.017    24218247.161    24218242.379
  24218246.239          39.500          34.000
 113596209.498 8  88516531.708 7  21616636.462    21616635.948    21616636.944
  21616636.531          49.750          42.500
 125162809.595 6  97529467.319 6  23817691.291    23817695.048    23817692.078
  23817695.772          39.750          38.250
 19  9 29 16 21  0.0000000  0  8G13G12G05G02G15G06G29G25
 117845286.105 7  91827497.51944  22425205.864    22425206.026    22425206.369
                        44.500          26.750
 129244438.752 7 100709932.320 6  24594403.333    24594404.825    24594403.708
  24594405.084          42.500          36.250
 105570980.205 8  82263110.084 8  20089483.316    20089482.721    20089483.584
  20089483.098          52.500          48.500
 112057480.188 8  87317517.94646  21323826.775    21323824.505    21323827.794
                        48.500          40.000
 127036556.789 6  98989540.733 5  24174250.111    24174251.204    24174250.285
  24174251.690          38.250          34.500
 127347647.848 6  99231929.352 5  24233455.375    24233459.312    24233455.746
  24233460.243          40.250          34.500
 113527934.844 8  88463330.692 7  21603644.190    21603643.716    21603644.677
  21603644.016          50.000          42.500
 125231611.445 6  97583079.060 6  23830783.411    23830788.058    23830784.193
  23830788.188          38.500          38.000
 19  9 29 16 21 30.0000000  0  8G13G12G05G02G15G06G29G25
 117750049.166 7  91753286.94244  22407083.094    22407082.946    22407083.594
                        44.000          27.500
 129342326.242 6 100786208.211 6  24613031.250    24613031.758    24613031.603
  24613032.055          41.750          36.000
 105583161.457 8  82272601.958 8  20091801.407    20091800.712    20091801.679
  20091800.961          52.500          48.500
 112082367.653 8  87336910.76846  21328562.937    21328560.279    21328563.956
                        48.500          39.500
 126917936.771 6  98897109.632 5  24151678.174    24151678.833    24151678.339
  24151678.519          37.250          34.500
 127427713.092 6  99294317.787 5  24248692.089    24248694.873    24248692.455
  24248696.564          38.000          34.000
 113460087.750 8  88410462.838 7  21590733.440    21590732.912    21590733.931
  21590733.390          49.250          42.750
 125300707.557 6  97636920.129 6  23843932.353    23843936.582    23843933.153
  23843936.958          38.000          36.750
 19  9 29 16 22  0.0000000  0  8G13G12G05G02G15G06G29G25
 117655094.846 7  91679296.61044  22389014.278    22389014.246    22389014.756
                        45.000          28.500
 129440182.245 7 100862459.577 6  24631653.769    24631653.414    24631654.158
  24631654.011          42.000          36.000
 105595752.855 8  82282413.425 8  20094197.495    20094196.777    20094197.767
  20094197.124          52.500          48.500
 112107498.741 8  87356493.43046  21333345.281    21333342.626    21333346.296
                        49.000          40.250
 126799363.008 6  98804714.593 5  24129114.573    24129114.628    24129114.698
  24129115.165          37.250          35.000
 127507896.996 6  99356798.726 5  24263950.036    24263954.548    24263950.416
  24263955.479          38.750          35.000
 113392670.834 8  88357930.165 7  21577904.294    21577903.912    21577904.781
  21577904.210          50.000          42.750
 125370094.896 6  97690988.165 6  23857136.539    23857140.170    23857137.299
  23857141.024          39.250          38.000
 19  9 29 16 22 30.0000000  0  8G13G12G05G02G15G06G29G25
 117560426.402 7  91605529.01444  22370999.511    22370999.309    22370999.984
                        44.750          28.000
 129538004.139 7 100938684.368 5  24650268.338    24650268.305    24650268.704
  24650268.802          43.000          35.250
 105608752.800 8  82292543.252 8  20096671.206    20096670.648    20096671.478
  20096670.942          52.500          48.500
 112132874.126 8  87376266.45346  21338173.839    21338171.464    21338174.854
                        48.500          39.750
 126680838.460 6  98712357.837 5  24106558.957    24106560.010    24106559.091
  24106560.747          39.000          34.500
 127588199.405 6  99419371.960 5  24279231.327    24279236.412    24279231.733
  24279236.390          38.750          34.750
 113325686.536 8  88305734.618 7  21565157.688    21565157.181    21565158.175
  21565157.425          50.000          42.500
 125439770.460 6  97745280.764 6  23870395.722    23870398.934    23870396.495
  23870400.103          38.750          37.750
 19  9 29 16 23  0.0000000  0  8G13G12G05G02G15G06G29G25
 117466046.719 7  91531986.42444  22353039.620    22353038.898    22353040.080
                        45.000          27.500
 129635788.212 7 101014879.658 5  24668875.642    24668876.381    24668875.986
  24668876.548          42.000          35.250
 105622160.122 8  82302990.507 8  20099222.752    20099221.919    20099223.024
  20099222.338          52.250          48.250
 112158494.486 8  87396230.36846  21343049.303    21343046.785    21343050.322
                        48.500          39.750
 126562365.242 6  98620041.112 5  24084014.358    24084015.287    24084014.501
  24084015.414          40.250          34.750
 127668620.099 6  99482037.383 5  24294534.418    24294538.882    24294534.789
  24294539.941          40.250          32.500
 113259137.492 8  88253878.215 7  21552493.846    21552493.317    21552494.337
  21552493.676          49.750          42.500
 125509731.160 6  97799795.572 6  23883709.106    23883711.875    23883709.825
  23883712.803          39.000          36.500
 19  9 29 16 23 30.0000000  0  8G13G12G05G02G15G06G29G25
 117371959.134 7  91458671.45844  22335135.045    22335134.866    22335135.514
                        44.750          28.000
 129733532.100 7 101091043.656 5  24687475.516    24687476.721    24687475.878
  24687477.495          43.000          35.500
 105635973.857 8  82313754.443 8  20101851.289    20101850.563    20101851.561
  20101850.946          52.250          48.500
 112184360.514 8  87416385.70746  21347971.446    21347969.008    21347972.461
                        48.500          39.750
 126443946.334 6  98527766.677 5  24061479.515    24061480.559    24061479.765
  24061481.325          41.000          33.000
 127749158.882 6  99544794.898 5  24309860.529    24309864.398    24309860.909
  24309865.537          39.500          32.000
 113193025.962 8  88202362.749 7  21539913.176    21539912.671    21539913.663
  21539913.182          49.750          42.500
 125579973.946 6  97854530.144 6  23897075.224    23897078.798    23897075.984
  23897079.486          37.750          37.500
 19  9 29 16 24  0.0000000  0  8G13G12G05G02G15G06G29G25
 117278166.398 7  91385586.24744  22317286.776    22317286.769    22317287.236
                        45.750          28.500
 129831232.787 7 101167173.995 5  24706067.239    24706067.711    24706067.641
  24706069.115          42.750          34.250
 105650192.564 8  82324833.952 8  20104556.959    20104556.306    20104557.231
  20104556.625          52.500          48.250
 112210472.706 8  87436732.85846  21352940.413    21352937.934    21352941.419
                        48.500          39.500
 126325584.519 6  98435536.716 5  24038956.798    24038956.638    24038957.075
  24038957.103          40.750          33.000
 127829815.578 6  99607644.221 5  24325209.961    24325212.992    24325210.385
  24325214.357          39.000          33.500
