     2.11           OBSERVATION DATA    G (GPS)             RINEX VERSION / TYPE
teqc  2018Jun8      root                20191128 20:46:08UTCPGM / RUN BY / DATE
Linux 2.4.21-27.ELsmp|Opteron|gcc|Linux 64|=+               COMMENT
teqc  2019Feb25     CORS-ADM Account    20191031 18:47:58UTCCOMMENT
teqc  2019Feb25     NOAA/NOS/NGS/CORS   20190930 04:34:57UTCCOMMENT
teqc  2018Dec12     gpsops              20190929 00:58:19UTCCOMMENT
Linux 2.6.32-573.12.1.x86_64|x86_64|gcc -static|Linux 64|=+ COMMENT
BIT 2 OF LLI FLAGS DATA COLLECTED UNDER A/S CONDITION       COMMENT
                                                            COMMENT
This data is provided as a public service by NASA/JPL.      COMMENT
No warranty is expressed or implied regarding suitability   COMMENT
for use.  For further information, contact:                 COMMENT
Dave Stowers, NASA/JPL m/s 238-600                          COMMENT
4800 Oak Grove Drive, Pasadena CA 91109 USA                 COMMENT
                                                            COMMENT
 SNR is mapped to RINEX snr flag value [0-9]                COMMENT
  L1 & L2: min(max(int(snr_dBHz/6), 0), 9)                  COMMENT
teqc.e edited: all SBAS satellites excluded                 COMMENT
teqc.e edited: all QZSS satellites excluded                 COMMENT
Forced Modulo Decimation to 30 seconds                      COMMENT
GODE                                                        MARKER NAME
40451M123                                                   MARKER NUMBER
GGN                 NASA GODDARD SPACE FLIGHT CENTER        OBSERVER / AGENCY
3013928             SEPT POLARX5TR      0.0.0-181002        REC # / TYPE / VERS
129                 AOAD/M_T        JPLA                    ANT # / TYPE
  1130774.4390 -4831255.0710  3994200.5580                  APPROX POSITION XYZ
        0.0614        0.0000        0.0000                  ANTENNA: DELTA H/E/N
     1     1                                                WAVELENGTH FACT L1/2
     8    L1    L2    P1    P2    C1    C2    S1    S2      # / TYPES OF OBSERV
    30.0000                                                 INTERVAL
teqc.w windowed: start @ 2019 Sep 29 20:00:00.000           COMMENT
teqc.w windowed:  end  @ 2019 Sep 30 08:00:00.000           COMMENT
teqc.w edited: all GLONASS satellites excluded              COMMENT
teqc.w edited: all SBAS satellites excluded                 COMMENT
teqc.w edited: all Galileo satellites excluded              COMMENT
teqc.w edited: all Beidou satellites excluded               COMMENT
teqc.w edited: all QZSS satellites excluded                 COMMENT
  2019     9    29    20     0    0.0000000     GPS         TIME OF FIRST OBS
    18                                                      LEAP SECONDS
                                                            END OF HEADER
 19  9 29 20  0  0.0000000  0 11G13G24G10G05G27G15G21G20G29G32G04
 122922971.831 6  95784135.13843  23391458.246    23391458.958    23391458.648
                        41.000          21.000
 111958216.295 7  87240197.359 7  21304933.426    21304935.998    21304933.685
  21304936.398          47.000          46.000
 121979721.237 7  95049146.908 6  23211963.276    23211965.803    23211963.669
  23211965.645          42.500          40.500
                                                                  25292797.962
  25292800.153          23.500          20.250
 127798995.340 6  99583651.856 6  24319338.444    24319341.994    24319339.016
  24319341.870          39.750          38.000
 109226378.867 8  85111485.578 7  20785081.899    20785081.359    20785082.198
  20785081.885          51.000          45.250
 110353564.547 8  85989787.32146  20999578.326    20999578.047    20999579.488
                        48.750          41.750
 110287894.360 8  85938633.65046  20987080.084    20987080.207    20987081.260
                        48.250          38.000
 131867461.467 7 102753855.875 5  25093551.566    25093554.769    25093552.093
  25093554.817          42.250          34.750
 131647570.649 5 102582523.73642  25051697.711    25051700.693    25051697.952
                        35.000          12.000
 127216854.710 6  99130021.25242  24208561.251    24208562.645    24208561.912
                        36.750          17.500
 19  9 29 20  0 30.0000000  0 11G13G24G10G05G27G15G21G20G29G32G04
 123021767.976 6  95861119.13943  23410258.311    23410259.265    23410258.717
                        41.250          20.750
 111892076.544 7  87188659.906 7  21292347.574    21292349.807    21292347.833
  21292350.456          47.000          45.750
 121902273.595 7  94988798.132 6  23197225.175    23197227.881    23197225.568
  23197227.665          42.250          40.750
                                                                  25309248.248
  25309252.178          22.250          21.250
 127783817.370 6  99571824.923 6  24316451.185    24316453.138    24316451.775
  24316452.991          39.750          38.250
 109287143.603 8  85158834.715 7  20796645.110    20796644.487    20796645.405
  20796644.945          51.000          45.250
 110342782.808 8  85981385.96646  20997526.596    20997526.127    20997527.749
                        48.500          41.750
 110230637.011 8  85894017.54646  20976184.567    20976184.455    20976185.751
                        48.000          38.250
 131969318.305 6 102833224.644 5  25112934.184    25112938.019    25112934.734
  25112937.925          41.500          34.750
 131551850.087 5 102507936.37542  25033482.513    25033485.905    25033482.656
                        35.250          12.250
 127239036.686 6  99147305.90443  24212782.720    24212784.134    24212783.372
                        37.750          18.500
 19  9 29 20  1  0.0000000  0 11G13G24G10G05G27G15G21G20G29G32G04
 123120670.464 6  95938185.95843  23429079.340    23429079.586    23429079.751
                        41.500          21.000
 111826425.489 7  87137503.267 7  21279854.428    21279857.015    21279854.682
  21279857.313          47.250          46.500
 121824874.917 7  94928487.501 6  23182496.560    23182499.139    23182496.931
  23182498.664          43.500          41.000

  25325708.044                          20.250
 127769191.094 6  99560427.815 6  24313666.796    24313669.768    24313667.390
  24313670.871          40.250          39.000
 109348227.195 8  85206432.320 7  20808268.886    20808268.327    20808269.185
  20808268.633          51.500          45.500
 110332469.987 8  85973350.00146  20995564.123    20995563.648    20995565.281
                        49.000          41.750
 110173586.575 8  85849562.67146  20965328.130    20965328.022    20965329.310
                        48.250          38.250
 132071050.231 7 102912496.044 5  25132293.479    25132297.081    25132294.046
  25132297.572          44.000          35.250
 131456246.684 6 102433450.334 5  25015289.409    25015293.283    25015289.565
  25015294.010          36.250          34.500
 127261720.306 6  99164981.48043  24217098.766    24217100.475    24217099.400
                        38.000          18.250
 19  9 29 20  1 30.0000000  0 11G13G24G10G05G27G15G21G20G29G32G04
 123219677.380 6  96015334.18643  23447919.806    23447919.708    23447920.186
                        41.750          20.500
 111761264.965 7  87086728.869 7  21267454.830    21267457.281    21267455.089
  21267457.642          47.000          46.000
 121747525.763 7  94868215.454 6  23167777.605    23167780.203    23167777.980
  23167779.761          43.250          40.250
                                                                  25342166.513
  25342177.437          18.500          20.250
 127755116.528 6  99549460.633 6  24310988.627    24310992.156    24310989.194
  24310992.603          39.250          39.750
 109409627.653 8  85254276.839 7  20819953.008    20819952.570    20819953.303
  20819952.613          51.250          45.500
 110322626.861 8  85965680.03146  20993691.107    20993690.763    20993692.260
                        48.750          41.750
 110116744.592 8  85805270.23546  20954511.497    20954511.484    20954512.677
                        48.250          38.500
 132172654.619 6 102991668.143 5  25151628.109    25151631.456    25151628.676
  25151632.135          41.750          33.000
 131360761.412 6 102359046.347 5  24997118.977    24997123.305    24997119.213
  24997123.918          36.000          34.000
 127284904.578 6  99183047.12742  24221510.538    24221512.361    24221511.195
                        38.250          17.750
 19  9 29 20  2  0.0000000  0 10G13G24G10G27G15G21G20G29G32G04
 123318786.643 6  96092562.13343  23466779.246    23466779.715    23466779.639
                        40.750          20.000
 111696597.758 7  87036338.867 7  21255149.019    21255151.372    21255149.273
  21255152.026          46.500          46.000
 121670226.741 7  94807982.494 6  23153068.059    23153070.648    23153068.425
  23153070.355          42.500          41.000
 127741593.742 6  99538923.421 6  24308415.432    24308418.854    24308415.977
  24308418.205          38.750          38.250
 109471342.824 8  85302366.567 7  20831697.094    20831696.593    20831697.393
  20831696.838          51.250          45.500
 110313254.491 8  85958376.88546  20991907.497    20991907.193    20991908.655
                        48.500          41.750
 110060111.977 8  85761140.93346  20943734.636    20943734.588    20943735.812
                        48.000          38.250
 132274128.841 6 103070738.730 5  25170938.262    25170941.447    25170938.825
  25170942.090          40.500          32.750
 131265395.300 5 102284735.211 5  24978971.473    24978975.735    24978971.736
  24978975.688          33.500          34.000
 127308587.444 6  99201501.31443  24226017.260    24226018.800    24226017.930
                        38.250          18.000
 19  9 29 20  2 30.0000000  0 10G13G24G10G27G15G21G20G29G32G04
 123417996.154 6  96169868.21543  23485658.703    23485658.745    23485659.065
                        40.250          19.500
 111632427.031 7  86986335.724 7  21242937.856    21242940.189    21242938.110
  21242940.550          47.000          46.250
 121592978.521 7  94747789.079 6  23138368.287    23138370.811    23138368.635
  23138370.576          43.250          41.000
 127728622.720 6  99528816.146 6  24305946.878    24305950.174    24305947.445
  24305950.565          39.250          38.500
 109533370.704 8  85350699.981 7  20843500.471    20843500.179    20843500.770
  20843500.296          51.000          45.500
 110304353.585 8  85951441.11446  20990213.949    20990213.204    20990215.102
                        48.500          41.500
 110003690.134 8  85717175.87346  20932997.851    20932997.931    20932999.027
                        48.250          38.500
 132375470.462 6 103149706.016 5  25190222.950    25190225.248    25190223.540
  25190226.436          40.000          31.500
 131170149.390 5 102210517.745 5  24960846.281    24960851.140    24960846.580
  24960850.551          33.250          32.750
 127332767.316 6  99220342.77543  24230618.067    24230620.493    24230618.710
                        38.000          18.000
 19  9 29 20  3  0.0000000  0 11G13G24G10G05G27G15G21G20G29G32G04
 123517303.489 6  96247250.51443  23504556.312    23504556.537    23504556.678
                        40.000          20.000
 111568754.129 7  86936720.499 7  21230821.415    21230823.599    21230821.669
  21230823.774          47.000          46.000
 121515781.677 7  94687635.731 6  23123678.041    23123680.591    23123678.376
  23123680.850          43.250          41.000
                                                                  25391632.599
                        20.500
 127716203.458 6  99519138.799 6  24303583.852    24303586.649    24303584.446
  24303587.066          39.250          38.750
 109595709.390 8  85399275.590 7  20855363.218    20855362.794    20855363.517
  20855362.934          51.000          45.250
 110295924.987 8  85944873.37746  20988609.918    20988609.430    20988611.076
                        48.500          41.750
 109947480.493 8  85673376.16446  20922301.700    20922301.426    20922302.871
                        48.250          38.500
 132476676.626 6 103228567.717 5  25209481.968    25209484.933    25209482.567
  25209486.214          39.250          31.000
 131075024.765 5 102136394.672 5  24942743.919    24942749.533    24942744.169
  24942750.143          33.500          33.500
 127357442.553 6  99239570.23443  24235314.880    24235316.104    24235315.537
                        37.500          18.000
 19  9 29 20  3 30.0000000  0 11G13G24G10G05G27G15G21G20G29G32G04
 123616706.867 6  96324707.65243  23523472.288    23523472.306    23523472.694
                        40.750          20.000
 111505582.400 7  86887495.801 7  21218799.903    21218802.232    21218800.162
  21218802.797          47.250          46.250
 121438636.844 7  94627522.911 6  23108997.972    23109000.518    23108998.302
  23109000.571          43.000          41.000
                                                                  25408138.462
                        21.500
 127704335.897 6  99509891.399 6  24301325.949    24301328.336    24301326.583
  24301328.529          38.500          39.000
 109658356.629 8  85448091.617 7  20867284.401    20867283.993    20867284.705
  20867284.439          51.500          45.000
 110287969.721 8  85938674.46446  20987095.844    20987095.692    20987097.006
                        48.750          41.500
 109891483.964 8  85629742.51546  20911645.506    20911645.706    20911646.686
                        48.250          38.500
 132577744.949 6 103307322.081 5  25228714.895    25228717.798    25228715.471
  25228719.275          39.500          30.500
 130980022.227 5 102062366.778 5  24924665.700    24924671.268    24924665.905
  24924670.694          34.500          34.750
 127382611.888 6  99259182.71442  24240104.213    24240105.489    24240104.915
                        38.000          17.000
 19  9 29 20  4  0.0000000  0 10G13G24G10G27G15G21G20G29G32G04
 123716204.468 6  96402238.23543  23542406.141    23542405.495    23542406.565
                        40.500          20.000
 111442913.507 7  86838662.933 7  21206874.543    21206876.991    21206874.802
  21206877.238          47.500          46.500
 121361544.639 7  94567451.094 6  23094327.807    23094330.185    23094328.146
  23094330.174          43.750          40.500
 127693020.018 6  99501073.814 6  24299172.267    24299174.951    24299172.915
  24299175.266          38.500          39.000
 109721310.707 8  85497146.734 7  20879264.251    20879263.778    20879264.550
  20879264.205          51.250          45.250
 110280488.347 8  85932844.81946  20985672.536    20985672.012    20985673.698
                        48.750          41.250
 109835701.986 8  85586276.04746  20901030.758    20901030.718    20901031.942
                        48.500          38.500
 132678673.030 6 103385967.071 5  25247921.527    25247924.262    25247922.103
  25247925.104          39.500          31.250
 130885142.805 5 101988434.840 5  24906611.175    24906616.341    24906611.434
  24906614.992          34.750          34.500
 127408273.530 6  99279178.78342  24244987.040    24244987.929    24244987.697
                        37.750          17.250
 19  9 29 20  4 30.0000000  0 10G13G24G10G27G15G21G20G29G32G04
 123815793.978 6  96479840.41243  23561356.715    23561357.251    23561357.121
                        40.000          20.250
 111380750.777 7  86790224.469 7  21195045.270    21195047.774    21195045.524
  21195048.166          47.250          46.500
 121284505.778 7  94507420.836 6  23079667.623    23079670.033    23079667.998
  23079669.880          44.000          41.000
 127682255.696 6  99492686.075 6  24297123.375    24297126.684    24297124.054
  24297127.353          39.500          38.250
 109784569.535 8  85546439.335 7  20891302.128    20891301.449    20891302.432
  20891301.868          51.250          44.750
 110273481.972 8  85927385.30846  20984339.133    20984338.651    20984340.300
                        48.750          41.750
 109780135.772 8  85542977.71046  20890457.048    20890456.900    20890458.228
                        48.500          38.750
 132779457.793 6 103464500.403 5  25267099.448    25267103.699    25267100.051
  25267102.400          38.500          32.250
 130790387.330 6 101914599.535 6  24888580.239    24888584.492    24888580.449
  24888585.200          37.000          36.250
 127434425.351 6  99299556.80643  24249963.696    24249964.751    24249964.335
                        37.750          18.250
 19  9 29 20  5  0.0000000  0 10G13G24G10G27G15G21G20G29G32G04
 123915473.163 6  96557512.46443  23580325.349    23580326.210    23580325.746
                        40.000          20.000
 111319095.776 7  86742181.643 7  21183312.601    21183315.306    21183312.855
  21183315.530          47.000          46.750
 121207520.874 7  94447432.621 6  23065017.982    23065020.550    23065018.366
  23065020.487          43.250          40.500
 127672042.828 6  99484728.011 6  24295180.174    24295183.115    24295180.867
  24295183.554          39.000          38.500
 109848130.440 8  85595967.301 7  20903397.146    20903396.776    20903397.450
  20903397.190          51.000          45.000
 110266951.487 8  85922296.61546  20983096.347    20983096.000    20983097.514
                        48.500          41.500
 109724786.464 8  85499848.39146  20879924.271    20879924.225    20879925.451
                        48.250          38.750
 132880096.836 6 103542920.226 5  25286251.366    25286255.234    25286251.862
  25286254.920          37.250          30.500
 130695757.004 6 101840861.735 6  24870571.484    24870576.910    24870571.801
  24870576.960          38.250          36.750
 127461065.921 6  99320315.67443  24255032.907    24255034.873    24255033.613
                        38.750          18.500
 19  9 29 20  5 30.0000000  0 10G13G24G10G27G15G21G20G29G32G04
 124015240.519 6  96635253.22443  23599310.491    23599310.930    23599310.880
                        39.750          18.500
 111257951.477 7  86694536.750 7  21171677.168    21171679.732    21171677.422
  21171680.145          47.750          46.500
 121130590.586 7  94387486.967 6  23050378.712    23050380.856    23050379.087
  23050380.656          44.250          40.500
 127662381.265 6  99477199.512 6  24293341.373    24293344.076    24293342.097
  24293345.477          38.750          38.500
 109911991.618 8  85645729.251 7  20915549.895    20915549.099    20915550.194
  20915549.392          50.750          45.000
 110260897.041 8  85917578.86446  20981944.285    20981943.940    20981945.452
                        48.750          41.500
 109669655.827 8  85456889.46546  20869433.393    20869433.227    20869434.573
                        48.500          39.000
 132980588.027 6 103621224.743 4  25305374.337    25305378.432    25305374.810
  25305377.833          36.250          29.000
 130601252.777 6 101767222.156 6  24852588.986    24852593.135    24852589.294
  24852592.856          38.000          37.500
 127488193.574 6  99341454.10343  24260194.954    24260196.981    24260195.656
                        39.000          18.000
 19  9 29 20  6  0.0000000  0 10G13G24G10G27G15G21G20G29G32G04
 124115093.965 6  96713061.05543  23618312.262    23618312.138    23618312.624
                        39.750          19.500
 111197319.646 7  86647291.197 7  21160139.300    21160141.811    21160139.559
  21160142.126          47.500          46.750
 121053715.532 7  94327584.377 6  23035749.572    23035752.090    23035749.934
  23035752.025          44.250          41.250
 127653270.828 6  99470100.526 6  24291607.531    24291611.143    24291608.237
  24291611.050          39.750          38.000
 109976151.050 8  85695723.611 7  20927758.601    20927758.216    20927758.905
  20927758.563          51.250          45.000
 110255319.865 8  85913233.01346  20980882.962    20980882.516    20980884.133
                        48.750          41.500
 109614744.640 8  85414101.53846  20858984.185    20858983.948    20858985.365
                        48.500          39.000
 133080928.029 5 103699411.527 4  25324469.302    25324472.788    25324469.695
  25324473.510          33.500          29.250
 130506875.548 6 101693681.523 6  24834630.059    24834633.852    24834630.331
  24834633.619          40.000          36.000
 127515806.771 6  99362970.87243  24265450.009    24265451.120    24265450.715
                        38.250          18.000
 19  9 29 20  6 30.0000000  0 10G13G24G10G27G15G21G20G29G32G04
 124215031.516 6  96790934.43643  23637329.864    23637329.596    23637330.185
                        39.000          18.000
 111137202.924 7  86600447.010 7  21148699.540    21148702.023    21148699.799
  21148701.875          47.750          46.500
 120976896.455 7  94267725.373 6  23021131.209    23021133.976    23021131.571
  23021134.537          44.250          41.000
 127644711.374 6  99463430.822 6  24289978.523    24289981.993    24289979.193
  24289982.923          40.750          38.000
 110040607.104 8  85745949.091 7  20940024.383    20940023.823    20940024.682
  20940024.339          51.000          45.000
 110250220.837 8  85909259.74446  20979912.611    20979912.250    20979913.782
                        48.750          41.500
 109560054.449 8  85371485.81746  20848576.713    20848576.707    20848577.897
                        48.500          38.750
 133181114.802 5 103777478.876 4  25343534.448    25343538.065    25343534.743
  25343536.172          33.750          27.000
 130412626.227 6 101620240.584 5  24816693.605    24816698.531    24816693.859
  24816698.805          38.250          34.000
 127543903.359 6  99384864.30442  24270796.537    24270798.023    24270797.310
                        37.750          17.000
 19  9 29 20  7  0.0000000  0 10G13G24G10G27G15G21G20G29G32G04
 124315050.960 6  96868871.63343  23656362.787    23656362.118    23656363.100
                        40.250          18.750
 111077603.634 7  86554006.018 7  21137358.110    21137360.539    21137358.364
  21137360.944          47.250          46.250
 120900133.957 7  94207910.472 6  23006524.185    23006526.571    23006524.565
  23006526.425          44.000          41.250
 127636702.640 6  99457190.275 6  24288455.063    24288457.849    24288455.747
  24288458.935          39.750          38.000
 110105357.200 8  85796403.713 7  20952346.058    20952345.402    20952346.353
  20952346.106          51.500          45.000
 110245600.457 8  85905659.44246  20979033.553    20979033.071    20979034.729
                        49.000          41.500
 109505586.452 8  85329043.23546  20838211.869    20838211.750    20838213.053
                        48.750          39.000
 133281146.101 6 103855423.12041  25362569.709    25362573.552    25362569.928
                        38.500           9.750
 130318505.823 6 101546900.141 5  24798783.540    24798787.326    24798783.772
  24798788.168          37.500          34.250
 127572481.928 6  99407133.30642  24276234.015    24276236.669    24276234.766
                        38.000          17.000
 19  9 29 20  7 30.0000000  0 10G13G24G10G27G15G21G20G29G32G04
 124415150.324 6  96946871.10343  23675410.812    23675410.680    23675411.142
                        40.000          18.500
 111018524.361 7  86507970.240 7  21126115.739    21126118.138    21126115.989
  21126118.418          46.750          46.250
 120823428.771 7  94148140.233 6  22991927.813    22991929.831    22991928.188
  22991929.747          44.000          40.750
 127629244.440 6  99451378.668 6  24287035.680    24287038.467    24287036.382
  24287038.378          40.250          38.250
 110170399.569 8  85847086.067 7  20964723.023    20964722.460    20964723.322
  20964723.054          50.750          44.750
 110241459.103 8  85902432.41446  20978245.233    20978244.965    20978246.413
                        48.750          41.500
 109451341.907 8  85286774.77246  20827889.541    20827889.358    20827890.721
                        48.250          38.750
 133381018.831 5 103933245.763 3  25381574.819    25381579.083    25381575.055
  25381574.410          35.000          23.250
 130224515.259 6 101473660.877 5  24780896.910    24780901.167    24780897.155
  24780901.730          38.750          35.500
 127601540.505 6  99429776.34543  24281764.296    24281766.287    24281765.056
                        38.000          18.000
 19  9 29 20  8  0.0000000  0 11G13G24G10G05G27G15G21G20G29G32G04
 124515327.722 6  97024931.40343  23694474.441    23694473.708    23694474.758
                        40.000          19.000
 110959967.274 7  86462341.362 7  21114972.849    21114975.235    21114973.094
  21114975.466          47.000          46.500
 120746781.576 7  94088415.163 6  22977342.082    22977344.561    22977342.444
  22977344.080          44.000          41.250
                                                                  25557052.517
                        18.000
 127622336.489 6  99445995.845 6  24285721.667    24285723.846    24285722.351
  24285724.133          39.250          37.500
 110235731.928 8  85897994.390 7  20977155.374    20977155.073    20977155.673
  20977155.188          51.000          44.500
 110237797.578 8  85899579.27446  20977548.524    20977548.179    20977549.704
                        48.500          41.500
 109397321.989 8  85244681.34046  20817609.571    20817609.791    20817610.751
                        48.250          39.000
 133480730.823 5 104010943.247 3  25400548.778    25400553.899    25400548.907
  25400553.470          34.750          22.000
 130130655.474 6 101400523.495 5  24763036.859    24763041.028    24763037.078
  24763040.906          38.000          34.750
 127631076.883 6  99452791.70843  24287385.511    24287386.745    24287386.306
                        38.500          18.250
 19  9 29 20  8 30.0000000  0 11G13G24G10G05G27G15G21G20G29G32G04
 124615581.348 6  97103051.05343  23713551.723    23713551.725    23713552.094
                        39.750          18.750
 110901934.391 7  86417120.951 7  21103929.268    21103931.928    21103929.513
  21103932.145          47.250          46.750
 120670193.083 7  94028735.851 6  22962767.797    22962770.103    22962768.159
  22962769.961          44.000          41.000
                                                                  25573641.517
                        20.500
 127615978.495 6  99441041.567 6  24284511.413    24284514.460    24284512.083
  24284514.981          39.750          37.750
 110301352.346 8  85949127.178 7  20989642.537    20989642.137    20989642.832
  20989642.546          50.750          44.750
 110234616.831 8  85897100.77046  20976943.284    20976942.914    20976944.464
                        48.250          41.250
 109343528.231 8  85202764.14046  20807373.173    20807373.053    20807374.349
                        48.250          39.000
 133580279.361 5 104088513.184 4  25419493.341    25419497.620    25419493.779
  25419495.643          34.000          24.250
 130036927.477 6 101327488.744 5  24745201.421    24745205.022    24745201.666
  24745205.206          36.000          34.250
 127661089.844 6  99476178.41743  24293095.456    24293098.197    24293096.207
                        38.750          18.000
 19  9 29 20  9  0.0000000  0 10G13G24G10G27G15G21G20G29G32G04
 124715908.958 6  97181228.39743  23732643.589    23732643.916    23732643.960
                        39.750          19.000
 110844427.976 7  86372310.778 7  21092986.244    21092988.513    21092986.485
  21092989.130          47.500          46.250
 120593663.995 7  93969102.827 6  22948204.934    22948206.990    22948205.309
  22948207.368          44.000          41.000
 127610170.164 6  99436515.622 6  24283406.137    24283409.486    24283406.789
  24283409.735          39.250          38.000
 110367258.848 8  86000482.869 7  21002184.090    21002183.768    21002184.389
  21002184.166          51.000          44.750
 110231917.286 8  85894997.22746  20976429.663    20976429.232    20976430.839
                        48.750          41.500
 109289961.965 8  85161024.20546  20797179.892    20797179.775    20797181.068
                        48.500          39.000
 133679662.562 5 104165954.444 3  25438405.275    25438409.882    25438405.605
  25438408.469          34.000          23.500
 129943332.032 5 101254557.356 5  24727390.525    24727393.620    24727390.712
  24727394.052          34.250          33.000
 127691577.371 6  99499934.93043  24298897.822    24298900.311    24298898.617
                        38.000          18.000
 19  9 29 20  9 30.0000000  0 10G13G24G10G27G15G21G20G29G32G04
 124816308.743 6  97259461.93742  23751749.361    23751749.666    23751749.714
                        39.250          17.750
 110787450.291 7  86327912.602 7  21082143.529    21082146.196    21082143.765
  21082146.616          47.500          46.750
 120517195.011 7  93909516.630 7  22933653.208    22933655.409    22933653.574
  22933655.359          44.500          42.000
 127604911.162 6  99432417.693 6  24282405.102    24282408.218    24282405.723
  24282409.301          39.250          38.500
 110433449.203 8  86052059.765 7  21014779.704    21014779.408    21014779.999
  21014779.599          51.000          45.000
 110229699.696 8  85893269.23046  20976007.594    20976007.281    20976008.770
                        48.750          41.250
 109236624.577 8  85119462.61546  20787029.985    20787029.952    20787031.165
                        48.500          39.000
 133778877.345 5                                                  25457286.005
  25457290.338          34.250          22.250
 129849870.214 6 101181730.063 5  24709605.109    24709607.933    24709605.252
  24709608.453          37.750          33.500
 127722537.412 6  99524059.62343  24304789.627    24304791.781    24304790.405
                        38.000          18.000
 19  9 29 20 10  0.0000000  0 10G13G24G10G27G15G21G20G29G32G04
 124916778.982 6  97337750.41643  23770866.927    23770867.869    23770867.324
                        38.250          18.000
 110731003.899 7  86283928.416 7  21071402.561    21071404.957    21071402.802
  21071405.072          47.750          47.000
 120440786.868 7  93849977.839 7  22919113.159    22919115.633    22919113.534
  22919115.501          44.250          42.000
 127600201.132 6  99428747.530 6  24281508.942    24281511.703    24281509.568
  24281512.380          39.000          38.250
 110499921.857 8  86103856.621 7  21027428.999    21027428.756    21027429.294
  21027428.992          51.000          44.750
 110227964.672 8  85891917.26146  20975677.396    20975677.056    20975678.576
                        48.750          41.500
 109183517.211 8  85078080.26746  20776924.040    20776923.986    20776925.216
                        48.500          39.250
 133877921.513 5                                                  25476132.963
  25476134.547          30.500          19.500
 129756542.828 6 101109007.549 5  24691846.038    24691848.446    24691846.158
  24691848.919          37.500          34.250
 127753968.499 6  99548551.37843  24310770.151    24310772.308    24310770.884
                        38.000          18.000
 19  9 29 20 10 30.0000000  0 10G13G24G10G27G15G21G20G29G32G04
 125017317.698 6  97416092.23442  23789999.616    23789999.679    23790000.036
                        38.000          16.750
 110675090.298 8  86240359.396 7  21060762.280    21060764.691    21060762.516
  21060764.949          48.000          46.750
 120364440.283 7  93790487.026 6  22904584.959    22904587.260    22904585.334
  22904587.132          44.500          41.250
 127596039.692 6  99425504.832 6  24280717.344    24280720.557    24280717.965
  24280720.601          39.500          38.000
 110566674.524 8  86155871.674 7  21040131.710    21040131.295    21040132.005
  21040131.560          51.000          45.000
 110226712.807 8  85890941.78146  20975439.020    20975438.781    20975440.196
                        48.750          41.000
 109130640.949 8  85036877.99546  20766861.919    20766861.865    20766863.095
                        48.500          39.000
 133976792.667 5                                                  25494948.950
                        32.250
 129663350.813 6 101036390.502 5  24674111.218    24674114.917    24674111.361
  24674115.764          38.750          34.500
 127785868.276 6  99573408.34742  24316840.437    24316842.276    24316841.224
                        38.750          16.500
 19  9 29 20 11  0.0000000  0 10G13G24G10G27G15G21G20G29G32G04
 125117922.611 6  97494485.64442  23809143.948    23809144.095    23809144.421
                        38.500          16.750
 110619712.567 7  86197207.934 7  21050224.234    21050226.624    21050224.470
  21050227.021          47.750          46.500
 120288156.007 7  93731044.753 6  22890068.400    22890070.902    22890068.771
  22890070.558          43.750          41.000
 127592426.417 6  99422689.329 6  24280029.081    24280033.188    24280029.729
  24280033.062          40.000          38.250
 110633704.953 8  86208103.179 7  21052887.340    21052886.862    21052887.630
  21052887.096          51.000          44.750
 110225944.815 8  85890343.34546  20975293.016    20975292.707    20975294.205
                        48.750          41.500
 109077997.406 8  84995857.06746  20756844.460    20756844.277    20756845.631
                        49.000          39.500
 134075488.009 4                                                  25513731.883
                        27.250
 129570295.130 6 100963879.624 5  24656402.764    24656406.688    24656402.929
  24656407.059          39.000          35.500
 127818234.775 6  99598628.98342  24322999.952    24323001.543    24323000.703
                        38.500          17.250
 19  9 29 20 11 30.0000000  0 10G13G24G10G27G15G21G20G29G32G04
 125218592.314 6  97572929.50942  23828301.117    23828301.260    23828301.599
                        37.750          17.250
 110564872.021 8  86154475.064 7  21039788.491    21039790.912    21039788.723
  21039791.167          48.000          46.500
 120211934.783 7  93671651.630 6  22875564.384    22875566.336    22875564.746
  22875566.369          44.000          41.500
 127589360.941 6  99420300.654 6  24279446.732    24279449.440    24279447.389
  24279449.916          40.000          37.500
 110701011.434 8  86260549.757 7  21065695.203    21065694.698    21065695.498
  21065694.911          50.750          44.500
 110225660.997 8  85890122.18346  20975239.035    20975238.725    20975240.219
                        48.500          41.500
 109025587.959 8  84955018.54646  20746870.891    20746870.998    20746872.062
                        48.250          39.500
                                                                  25532465.602
                        21.250
 129477376.634 6 100891475.736 6  24638721.297    24638724.917    24638721.475
  24638725.505          37.500          36.250
 127851066.330 6  99624211.98042  24329247.257    24329249.017    24329248.012
                        38.750          17.750
 19  9 29 20 12  0.0000000  0 10G13G24G10G27G15G21G20G29G32G04
 125319324.627 6  97651422.19842  23847469.347    23847470.059    23847469.803
                        38.500          17.500
 110510571.451 8  86112162.943 7  21029455.249    21029457.659    21029455.481
  21029458.011          48.000          46.500
 120135777.340 7  93612308.188 6  22861071.641    22861074.022    22861072.007
  22861073.742          44.750          41.000
 127586842.762 6  99418338.428 6  24278967.015    24278969.903    24278967.672
  24278970.351          39.750          37.750
 110768591.622 8  86313209.648 7  21078555.283    21078554.807    21078555.587
  21078555.239          50.500          44.500
 110225862.093 8  85890278.88146  20975277.414    20975277.007    20975278.598
                        48.500          41.250
 108973413.961 8  84914363.49246  20736942.737    20736942.565    20736943.908
                        48.500          39.500
                                                                  25551203.874
                        20.500
 129384596.228 6 100819179.396 5  24621065.461    24621069.601    24621065.586
  24621069.670          36.500          35.250
 127884361.089 6  99650155.94042  24335584.078    24335584.894    24335584.829
                        38.250          17.000
 19  9 29 20 12 30.0000000  0 10G13G24G10G27G15G21G20G29G32G04
 125420117.643 6  97729962.17642  23866650.028    23866650.346    23866650.452
                        38.500          17.750
 110456812.372 8  86070272.783 7  21019225.368    21019227.834    21019225.604
  21019228.143          48.000          47.000
 120059684.435 7  93553015.034 6  22846591.769    22846594.036    22846592.158
  22846594.044          44.750          41.750
 127584871.397 6  99416802.325 6  24278591.647    24278595.123    24278592.317
  24278596.010          39.500          39.000
 110836443.751 8  86366081.435 7  21091467.187    21091466.832    21091467.486
  21091466.802          50.750          44.500
 110226548.347 8  85890813.62546  20975407.985    20975407.480    20975409.165
                        48.500          41.250
 108921476.703 8  84873892.91246  20727059.429    20727059.318    20727060.609
                        48.750          39.500
                                                                  25569881.520
                        20.000
 129291954.764 6 100746991.370 6  24603436.663    24603440.627    24603436.752
  24603441.071          36.250          37.250
 127918117.170 6  99676459.37042  24342007.252    24342008.452    24342007.958
                        37.500          16.500
 19  9 29 20 13  0.0000000  0 10G13G24G10G27G15G21G20G29G32G04
 125520969.642 6  97808548.12542  23885841.410    23885842.041    23885841.776
                        38.000          17.000
 110403597.457 8  86028806.635 7  21009098.827    21009101.228    21009099.059
  21009101.520          48.000          47.000
 119983656.831 7  93493772.768 7  22832123.577    22832126.387    22832123.988
  22832126.591          44.750          42.000
 127583446.338 6  99415691.891 6  24278321.257    24278324.201    24278321.918
  24278323.923          39.750          38.500
 110904566.086 8  86419163.757 7  21104430.620    21104429.994    21104430.928
  21104430.578          50.500          45.000
 110227720.639 8  85891727.09546  20975631.093    20975630.587    20975632.269
                        48.500          41.250
 108869777.288 8  84833607.65946  20717221.321    20717221.123    20717222.501
                        48.250          39.500
                                                                  25588508.560
                        22.750
 129199453.163 6 100674912.277 6  24585834.426    24585838.295    24585834.519
  24585838.622          36.250          36.500
 127952331.944 6  99703120.22442  24348517.651    24348519.286    24348518.366
                        38.250          17.500
 19  9 29 20 13 30.0000000  0  9G13G24G10G27G15G21G20G32G04
 125621878.705 6  97887178.50642  23905044.090    23905044.485    23905044.438
                        39.000          17.750
 110350928.520 7  85987765.931 7  20999076.357    20999078.689    20999076.589
  20999078.993          47.750          47.000
 119907695.297 7  93434582.002 7  22817669.063    22817671.264    22817669.469
  22817671.661          44.500          42.000
 127582567.085 6  99415006.780 6  24278153.468    24278156.493    24278154.125
  24278155.806          39.500          37.250
 110972956.035 8  86472454.617 7  21117444.699    21117444.200    21117445.007
  21117444.384          50.500          44.750
 110229379.198 8  85893019.47946  20975946.738    20975946.221    20975947.922
                        48.250          41.250
 108818317.212 8  84793508.90846  20707428.855    20707428.707    20707430.026
                        48.500          39.750
 129107092.340 6 100602942.855 5  24568258.726    24568261.974    24568258.869
  24568262.389          38.500          34.750
 127987004.000 6  99730137.38442  24355115.556    24355117.215    24355116.249
                        37.500          16.500
 19  9 29 20 14  0.0000000  0 10G13G24G10G27G15G21G20G29G32G04
 125722843.140 6  97965852.07942  23924257.554    23924257.053    23924257.858
                        39.500          17.500
 110298807.629 7  85947152.274 7  20989157.835    20989160.318    20989158.071
  20989160.568          47.750          47.000
 119831800.643 7  93375443.327 7  22803226.877    22803229.076    22803227.279
  22803228.882          45.000          42.000
 127582233.053 6  99414746.500 6  24278089.741    24278092.079    24278090.389
  24278091.301          39.000          36.250
 111041611.703 8  86525952.520 7  21130509.557    21130508.953    21130509.861
  21130509.371          51.000          44.750
 110231524.856 8  85894691.41246  20976354.922    20976354.628    20976356.102
                        48.750          41.250
 108767097.947 8  84753597.80046  20697681.915    20697681.934    20697683.095
                        48.750          39.750
                                                                  25625736.562
                        19.000
 129014873.190 6 100531083.873 5  24550709.279    24550713.271    24550709.484
  24550714.050          37.250          34.250
 128022131.098 6  99757509.13542  24361800.169    24361801.826    24361800.893
                        38.750          17.250
 19  9 29 20 14 30.0000000  0  9G13G24G10G27G15G21G20G32G04
 125823860.706 6  98044567.02742  23943479.679    23943480.375    23943479.996
                        39.250          17.250
 110247236.418 8  85906966.955 7  20979344.341    20979346.756    20979344.573
  20979347.166          48.250          47.250
 119755973.654 7  93316357.386 7  22788797.263    22788799.714    22788797.652
  22788799.618          45.000          42.000
 127582443.694 6  99414910.640 6  24278129.717    24278132.557    24278130.365
  24278133.759          39.000          38.250
 111110531.494 8  86579656.263 7  21143624.289    21143623.869    21143624.597
  21143624.000          51.000          44.250
 110234157.724 8  85896742.99446  20976855.886    20976855.611    20976857.062
                        48.750          41.250
 108716121.068 8  84713875.56146  20687981.546    20687981.384    20687982.722
                        48.750          39.500
 128922796.519 6 100459335.861 5  24533187.999    24533191.727    24533188.110
  24533191.931          36.750          33.750
 128057711.193 6  99785233.88342  24368571.001    24368572.832    24368571.729
                        38.750          17.750
                            4  1
RINEX FILE SPLICE; other post-header comments skipped       COMMENT
 19  9 29 20 15  0.0000000  0  9G13G24G10G27G15G21G20G32G04
 125924929.777 6  98123322.10842  23962712.760    23962712.989    23962713.064
                        39.500          17.500
 110196217.129 8  85867211.681 7  20969635.732    20969637.880    20969635.955
  20969638.398          48.250          47.250
 119680215.069 7  93257324.753 6  22774380.862    22774383.426    22774381.237
  22774383.045          45.000          41.750
 127583198.421 6  99415498.749 6  24278273.222    24278276.337    24278273.879
  24278276.770          39.500          38.000
 111179713.083 8  86633563.975 7  21156789.155    21156788.509    21156789.450
  21156789.138          50.500          44.750
 110237278.397 8  85899174.68446  20977449.999    20977449.407    20977451.175
                        48.500          41.250
 108665387.340 8  84674342.78946  20678327.108    20678327.097    20678328.284
                        48.500          39.750
 128830863.128 6 100387699.566 5  24515693.322    24515696.898    24515693.465
  24515697.851          37.000          34.500
 128093741.846 6  99813309.72242  24375427.763    24375428.773    24375428.469
                        38.000          17.750
 19  9 29 20 15 30.0000000  0  9G13G24G10G27G15G21G20G32G04
 126026048.738 6  98202116.06842  23981954.835    23981955.624    23981955.071
                        37.250          16.500
 110145752.303 8  85827888.464 7  20960032.579    20960034.780    20960032.811
  20960035.142          48.000          47.000
 119604525.750 7  93198346.085 6  22759977.718    22759980.008    22759978.093
  22759979.983          45.000          41.500
 127584496.583 6  99416510.332 6  24278520.176    24278523.453    24278520.842
  24278523.831          38.250          37.750
 111249154.585 8  86687674.237 7  21170003.626    21170002.999    21170003.916
  21170003.324          50.250          44.500
 110240887.118 8  85901986.66946  20978136.441    20978136.074    20978137.621
                        48.750          41.500
 108614898.474 8  84635000.82346  20668719.271    20668719.306    20668720.447
                        48.750          40.000
 128739073.929 5 100316175.639 5  24498226.041    24498229.725    24498226.318
  24498231.541          34.250          34.750
 128130221.389 6  99841735.29942  24382368.822    24382370.556    24382369.564
                        37.750          16.750
 19  9 29 20 16  0.0000000  0  9G13G24G10G27G15G21G20G32G04
 126127215.585 6  98280947.36042  24001206.431    24001207.023    24001206.739
                        38.500          16.750
 110095843.207 7  85788998.283 7  20950535.205    20950537.452    20950535.433
  20950537.667          47.750          47.000
 119528906.467 7  93139421.993 6  22745587.605    22745590.076    22745587.985
  22745590.151          44.750          41.750
 127586337.558 6  99417944.867 6  24278871.067    24278873.719    24278871.661
  24278874.057          38.250          37.000
 111318854.059 8  86741985.509 7  21183266.858    21183266.467    21183267.139
  21183266.591          50.750          44.250
 110244984.334 8  85905179.30046  20978916.279    20978915.858    20978917.455
                        48.500          41.250
 108564655.760 8  84595850.66446  20659158.693    20659158.508    20659159.873
                        48.750          40.000
 128647429.843 5 100244764.746 6  24480786.457    24480790.160    24480786.644
  24480791.005          34.750          36.250
 128167147.837 6  99870509.15842  24389395.752    24389397.434    24389396.427
                        37.250          16.250
 19  9 29 20 16 30.0000000  0  9G13G24G10G27G15G21G20G32G04
 126228428.446 6  98359814.49642  24020466.716    24020467.187    24020467.087
                        37.000          15.750
 110046492.208 8  85750542.990 7  20941143.997    20941146.271    20941144.216
  20941146.719          48.500          47.250
 119453358.062 7  93080553.133 6  22731211.326    22731213.586    22731211.719
  22731213.552          45.500          41.750
 127588720.622 6  99419801.833 6  24279324.533    24279327.567    24279325.132
  24279327.678          38.250          38.500
 111388809.721 8  86796496.407 7  21196578.925    21196578.505    21196579.215
  21196578.924          51.000          44.000
 110249570.670 8  85908753.06346  20979788.941    20979788.607    20979790.108
                        49.000          41.250
 108514660.437 8  84556893.27446  20649644.700    20649644.693    20649645.880
                        48.750          39.750
 128555931.611 5 100173467.549 5  24463376.005    24463378.900    24463376.170
  24463379.420          34.750          35.750
 128204518.831 6  99899629.39842  24396507.720    24396508.785    24396508.404
                        39.250          17.250
 19  9 29 20 17  0.0000000  0  9G13G24G10G27G15G21G20G32G04
 126329685.480 6  98438716.04742  24039735.435    24039735.408    24039735.810
                        37.000          16.500
 109997700.981 8  85712523.862 7  20931859.220    20931861.550    20931859.448
  20931861.904          48.250          46.750
 119377881.356 7  93021740.143 6  22716848.781    22716850.770    22716849.196
  22716850.786          45.500          41.500
 127591645.147 6  99422080.677 6  24279880.729    24279884.092    24279881.332
  24279884.438          37.250          37.750
 111459019.190 8  86851205.076 7  21209939.311    21209939.056    21209939.583
  21209939.263          50.750          44.250
 110254646.235 8  85912708.04546  20980754.972    20980754.388    20980756.139
                        48.750          41.250
 108464914.212 8  84518129.98946  20640178.330    20640178.330    20640179.523
                        48.750          40.000
 128464580.170 5 100102284.629 5  24445992.359    24445995.141    24445992.542
  24445996.148          35.250          32.750
 128242332.305 6  99929094.40642  24403703.537    24403704.556    24403704.230
                        38.000          17.000
 19  9 29 20 17 30.0000000  0  9G13G24G10G27G15G21G20G32G04
 126430985.271 6  98517650.89442  24059011.951    24059012.077    24059012.348
                        38.000          16.500
 109949471.555 8  85674942.515 7  20922681.378    20922683.742    20922681.601
  20922683.926          48.000          46.500
 119302477.152 7  92962983.645 6  22702499.631    22702501.866    22702500.055
  22702502.192          45.250          41.750
 127595110.363 6  99424780.862 6  24280540.952    24280543.987    24280541.560
  24280544.166          38.500          37.750
 111529480.743 8  86906110.175 7  21223347.848    21223347.337    21223348.111
  21223347.688          51.000          44.250
 110260211.512 8  85917044.61946  20981813.734    20981813.505    20981814.901
                        48.750          41.500
 108415418.185 8  84479561.66446  20630759.445    20630759.573    20630760.638
                        49.000          40.250
 128373376.218 5 100031216.726 5  24428634.903    24428639.468    24428635.113
  24428640.937          35.000          33.250
 128280586.378 6  99958902.77142  24410982.694    24410984.501    24410983.302
                        38.500          17.250
 19  9 29 20 18  0.0000000  0  9G13G24G10G27G15G21G20G32G04
 126532325.713 6  98596617.44642  24078296.174    24078296.115    24078296.571
                        38.000          16.500
 109901805.725 8  85637800.331 7  20913611.153    20913613.029    20913611.381
  20913613.650          48.250          47.250
 119227146.331 7  92904284.324 7  22688164.604    22688166.953    22688165.006
  22688166.716          45.250          42.000
 127599115.521 6  99427901.800 6  24281302.452    24281305.200    24281303.082
  24281305.954          38.250          37.500
 111600192.218 8  86961210.021 7  21236803.807    21236803.299    21236804.070
  21236803.545          50.500          44.500
 110266266.894 8  85921763.09046  20982966.191    20982965.771    20982967.358
                        49.000          41.250
 108366173.886 8  84441189.48746  20621388.511    20621388.559    20621389.695
                        48.750          40.000
 128282320.711 5  99960264.439 5  24411308.042    24411312.311    24411308.261
  24411312.481          35.000          34.250
 128319278.215 6  99989052.25442  24418345.971    24418347.228    24418346.556
                        38.000          17.750
 19  9 29 20 18 30.0000000  0  9G13G24G10G27G15G21G20G32G04
 126633705.062 6  98675614.30143  24097588.261    24097588.912    24097588.645
                        38.000          18.000
 109854705.780 8  85601099.093 7  20904648.178    20904650.466    20904648.410
  20904650.631          48.250          47.000
 119151889.687 7  92845642.812 7  22673843.774    22673846.040    22673844.158
  22673846.015          45.250          42.000
 127603659.869 6  99431442.824 6  24282166.892    24282169.990    24282167.504
  24282170.199          38.500          37.500
 111671151.553 8  87016503.003 7  21250307.083    21250306.548    21250307.342
  21250306.667          50.500          44.000
 110272812.604 8  85926863.64046  20984211.929    20984211.426    20984213.096
                        48.500          41.250
 108317182.660 8  84403014.51546  20612066.003    20612065.928    20612067.192
                        48.500          40.000
 128191414.380 6  99889428.407 5  24394009.518    24394013.124    24394009.808
  24394014.373          37.000          33.250
 128358406.228 6 100019541.57842  24425791.974    24425793.039    24425792.582
                        38.500          16.750
 19  9 29 20 19  0.0000000  0  9G13G24G10G27G15G21G20G32G04
 126735121.816 6  98754640.28642  24116887.454    24116888.194    24116887.811
                        38.500          17.500
 109808172.642 8  85564839.525 7  20895793.032    20895795.652    20895793.260
  20895795.700          48.500          47.500
 119076708.123 7  92787059.806 7  22659537.192    22659539.469    22659537.581
  22659539.299          45.500          42.500
 127608742.614 6  99435403.405 6  24283134.407    24283137.756    24283135.015
  24283137.903          37.500          38.000
 111742357.133 8  87071987.866 7  21263856.788    21263856.298    21263857.056
  21263856.516          50.750          43.750
 110279849.004 8  85932346.54646  20985550.694    20985550.400    20985551.865
                        49.000          41.500
 108268445.794 8  84365037.74746  20602791.832    20602791.618    20602793.025
                        48.750          40.250
 128100658.085 6  99818709.327 5  24376739.310    24376742.828    24376739.524
  24376743.780          38.000          34.750
 128397968.107 6 100050369.01242  24433319.657    24433321.458    24433320.256
                        38.250          16.750
 19  9 29 20 19 30.0000000  0  9G13G24G10G27G15G21G20G32G04
 126836574.099 6  98833693.97443  24136192.846    24136193.762    24136193.212
                        39.500          18.250
 109762208.949 8  85529023.673 7  20887046.580    20887048.760    20887046.816
  20887048.993          48.750          47.000
 119001602.477 7  92728535.952 7  22645245.365    22645247.465    22645245.740
  22645246.999          45.750          42.750
 127614362.978 6  99439782.931 6  24284204.074    24284207.315    24284204.700
  24284207.324          37.250          38.500
 111813806.779 8  87127662.906 7  21277453.519    21277452.687    21277453.787
  21277453.146          51.000          44.000
 110287376.169 8  85938211.86546  20986983.020    20986982.782    20986984.191
                        49.000          41.250
 108219964.729 8  84327260.30146  20593565.925    20593565.864    20593567.109
                        49.000          40.250
 128010052.623 6  99748107.757 5  24359496.895    24359501.007    24359497.149
  24359502.209          37.000          32.750
 128437961.748 6 100081532.85342  24440930.593    24440932.442    24440931.125
                        38.750          17.250
 19  9 29 20 20  0.0000000  0  9G13G24G10G27G15G21G20G32G04
 126938060.037 6  98912773.89342  24155505.456    24155505.502    24155505.786
                        39.000          16.750
 109716816.066 8  85493652.614 7  20878408.601    20878410.668    20878408.829
  20878410.868          48.500          47.000
 118926573.599 7  92670071.899 7  22630967.873    22630969.794    22630968.244
  22630969.984          45.500          42.500
 127620520.102 6  99444580.680 6  24285375.732    24285378.679    24285376.308
  24285379.128          38.750          37.250
 111885498.551 8  87183526.614 7  21291095.757    21291095.281    21291096.029
  21291095.654          50.500          44.000
 110295394.550 8  85944459.95246  20988509.021    20988508.593    20988510.188
                        48.750          41.250
 108171740.993 8  84289683.37246  20584389.213    20584389.335    20584390.397
                        48.750          40.250
 127919598.863 6  99677624.344 5  24342285.408    24342288.073    24342285.698
  24342288.395          36.750          33.500
 128478384.671 6 100113031.24542  24448622.387    24448624.567    24448622.950
                        39.250          16.750
 19  9 29 20 20 30.0000000  0  9G13G24G10G27G15G21G20G32G04
 127039578.013 6  98991878.78642  24174822.989    24174823.663    24174823.315
                        38.500          17.000
 109671996.094 8  85458727.974 7  20869879.622    20869881.714    20869879.858
  20869882.047          48.000          47.500
 118851622.403 7  92611668.398 7  22616705.170    22616706.986    22616705.532
  22616706.844          45.250          42.500
 127627213.094 6  99449796.000 6  24286649.241    24286651.848    24286649.817
  24286652.519          38.000          36.250
 111957431.163 8  87239577.986 7  21304784.037    21304783.628    21304784.305
  21304783.941          50.250          44.250
 110303904.272 8  85951090.90046  20990128.336    20990127.956    20990129.503
                        48.500          41.500
 108123775.832 8  84252307.93146  20575261.743    20575261.743    20575262.923
                        48.500          40.500
 127829297.517 6  99607259.762 5  24325101.381    24325104.767    24325101.716
  24325105.165          38.500          33.500
 128519234.914 6 100144862.56742  24456396.546    24456398.411    24456397.113
                        38.250          17.000
 19  9 29 20 21  0.0000000  0  9G13G24G10G27G15G21G20G32G04
 127141126.331 6  99071007.31142  24194147.521    24194147.677    24194147.878
                        39.250          16.750
 109627750.562 8  85424250.954 7  20861459.925    20861462.217    20861460.161
  20861462.660          48.250          47.250
 118776749.723 7  92553326.087 7  22602457.057    22602459.166    22602457.419
  22602458.990          45.500          42.000
 127634441.138 6  99455428.252 6  24288025.335    24288027.342    24288025.871
  24288028.567          38.000          37.750
 112029601.963 8  87295814.970 7  21318517.703    21318517.144    21318517.971
  21318517.621          50.500          43.750
 110312905.485 8  85958104.82546  20991841.124    20991840.860    20991842.286
                        49.000          41.500
 108076070.602 8  84215135.03646  20566183.777    20566183.745    20566184.966
                        49.000          40.500
 127739149.490 6  99537014.564 5  24307946.299    24307949.745    24307946.616
  24307950.157          39.500          31.250
 128560509.872 6 100177024.85042  24464251.277    24464251.851    24464251.809
                        39.000          16.500
 19  9 29 20 21 30.0000000  0  9G13G24G10G27G15G21G20G32G04
 127242702.989 6  99150157.92342  24213476.965    24213477.298    24213477.340
                        37.750          15.250
 109584081.063 8  85390222.789 7  20853149.898    20853152.140    20853150.139
  20853152.436          48.250          47.250
 118701956.574 7  92495045.724 6  22588224.417    22588226.278    22588224.779
  22588226.248          45.750          41.750
 127642203.261 6  99461476.661 6  24289501.785    24289505.276    24289502.321
  24289504.316          38.250          36.250
 112102008.896 8  87352235.950 7  21332296.158    21332295.917    21332296.430
  21332296.005          50.500          44.000
 110322398.321 8  85965501.83946  20993647.667    20993647.248    20993648.829
                        49.000          41.000
 108028626.945 8  84178165.96246  20557155.583    20557155.562    20557156.763
                        49.000          40.250
 127649155.432 6  99466889.399 5  24290821.166    24290823.994    24290821.411
  24290825.692          38.500          33.250
 128602207.394 6 100209516.40142  24472185.535    24472186.566    24472186.111
                        39.250          16.500
 19  9 29 20 22  0.0000000  0  9G13G24G10G27G15G21G20G32G04
