     2.11           OBSERVATION DATA    G (GPS)             RINEX VERSION / TYPE
teqc  2018Jun8      NGS Web             20191128 00:42:31UTCPGM / RUN BY / DATE
Linux 2.4.21-27.ELsmp|Opteron|gcc|Linux 64|=+               COMMENT
teqc  2019Feb25     CORS-ADM Account    20191031 19:06:54UTCCOMMENT
teqc  2019Feb25     NOAA/NOS/NGS/CORS   20190930 08:55:04UTCCOMMENT
BIT 2 OF LLI FLAGS DATA COLLECTED UNDER A/S CONDITION       COMMENT
 SNR is mapped to RINEX snr flag value [0-9]                COMMENT
  L1 & L2: min(max(int(snr_dBHz/6), 0), 9)                  COMMENT
teqc.e edited: all SBAS satellites excluded                 COMMENT
teqc.e edited: all QZSS satellites excluded                 COMMENT
pseudorange smoothing corrections not applied               COMMENT
rx serial #: 618-03100                                      COMMENT
Forced Modulo Decimation to 30 seconds                      COMMENT
LYCO                                                        MARKER NAME
Fran Jones          PA-081                                  OBSERVER / AGENCY
618-01994           TPS NET-G3A         4.7 Nov,23,2017 p6  REC # / TYPE / VERS
762-11000           TPSCR.G5        TPSH                    ANT # / TYPE
  1080274.0570 -4680045.2290  4182682.6660                  APPROX POSITION XYZ
        0.0000        0.0000        0.0000                  ANTENNA: DELTA H/E/N
     1     1                                                WAVELENGTH FACT L1/2
    11    L1    L2    L5    C1    P1    C2    P2    C5    S1# / TYPES OF OBSERV
          S2    S5                                          # / TYPES OF OBSERV
    30.0000                                                 INTERVAL
teqc.w windowed: start @ 2019 Sep 29 16:00:00.000           COMMENT
teqc.w windowed:  end  @ 2019 Sep 30 04:00:00.000           COMMENT
teqc.w edited: all GLONASS satellites excluded              COMMENT
teqc.w edited: all SBAS satellites excluded                 COMMENT
teqc.w edited: all Galileo satellites excluded              COMMENT
teqc.w edited: all Beidou satellites excluded               COMMENT
teqc.w edited: all QZSS satellites excluded                 COMMENT
  2019     9    29    16     0    0.0000000     GPS         TIME OF FIRST OBS
    18                                                      LEAP SECONDS
                                                            END OF HEADER
 19  9 29 16  0  0.0000000  0  8G12G09G06G13G25G29G05G02
 126582077.450 7  98635374.64545                  24087775.476    24087774.888
                  24087770.164                          44.000          31.0004

 129519535.284 7 100924320.19144                  24646747.844    24646748.327
                  24646744.827                          44.000          28.0004

 124735063.226 7  97196143.57945                  23736295.864    23736295.840
                  23736293.741                          45.000          35.0004

 123741586.515 7  96422010.24745                  23547236.661    23547236.432
                  23547232.264                          43.000          31.0004

 123238670.076 7  96030121.37745                  23451540.026    23451539.158
                  23451537.433                          45.000          31.0004

 116508937.902 8  90786184.47846                  22170912.107    22170911.951
                  22170906.319                          51.000          41.0004

 105954684.071 8  82562091.45648                  20162502.087    20162501.899
                  20162496.308                          53.000          49.0004

 111545511.994 8  86918579.66447                  21226402.549    21226401.713
                  21226394.144                          51.000          46.0004

 19  9 29 16  0 30.0000000  0  8G12G09G06G13G25G29G05G02
 126681224.822 7  98712632.29545                  24106642.096    24106641.842
                  24106637.302                          44.000          31.0004

 129601810.642 7 100988430.82244                  24662403.874    24662404.495
                  24662401.953                          42.000          28.0004

 124813581.232 7  97257326.41845                  23751237.679    23751237.783
                  23751234.743                          46.000          34.0004

 123634736.182 7  96338750.27145                  23526903.839    23526903.558
                  23526899.128                          45.000          31.0004

 123297283.899 7  96075794.44345                  23462693.784    23462692.867
                  23462691.205                          42.000          31.0004

 116428097.255 8  90723191.78047                  22155528.472    22155528.553
                  22155522.857                          52.000          42.0004

 105943988.268 8  82553757.06448                  20160466.813    20160466.402
                  20160460.940                          53.000          48.0004

 111563658.377 8  86932719.69347                  21229855.755    21229854.940
                  21229847.284                          50.000          46.0004

 19  9 29 16  1  0.0000000  0  8G12G09G06G13G25G29G05G02
 126780457.004 7  98789956.02745                  24125525.525    24125524.841
                  24125520.561                          44.000          30.0004

 129684447.353 7 101052823.03244                  24678129.261    24678129.903
                  24678126.831                          42.000          28.0004

 124892227.451 7  97318609.15245                  23766203.327    23766202.670
                  23766200.835                          43.000          33.0004

 123528019.117 7  96255594.14545                  23506596.340    23506596.052
                  23506591.843                          45.000          33.0004

 123356305.946 7  96121785.61345                  23473925.295    23473924.852
                  23473922.677                          43.000          31.0004

 116347605.540 8  90660470.98247                  22140211.510    22140211.274
                  22140205.660                          51.000          42.0004

 105933764.629 9  82545790.59248                  20158521.235    20158520.969
                  20158515.422                          54.000          48.0004

 111582042.315 8  86947044.83147                  21233354.195    21233353.308
                  21233345.605                          51.000          46.0004

 19  9 29 16  1 30.0000000  0  8G12G09G06G13G25G29G05G02
 126879770.027 7  98867342.75745                  24144424.259    24144423.701
                  24144419.095                          46.000          30.0004

 129767442.572 7 101117494.56944                  24693922.947    24693923.121
                  24693920.763                          43.000          29.0004

 124971001.312 7  97379991.32645                  23781193.062    23781192.096
                  23781191.525                          43.000          32.0004

 123421438.156 7  96172544.08345                  23486314.438    23486314.442
                  23486309.898                          43.000          32.0004

 123415733.127 7  96168092.47745                  23485234.254    23485233.646
                  23485231.372                          43.000          31.0004

 116267464.790 8  90598023.65746                  22124961.272    22124960.751
                  22124955.398                          52.000          41.0004

 105924012.261 9  82538191.34048                  20156665.473    20156665.476
                  20156659.544                          54.000          48.0004

 111600663.902 8  86961555.14847                  21236897.622    21236896.787
                  21236889.205                          51.000          46.0004

 19  9 29 16  2  0.0000000  0  8G12G09G06G13G25G29G05G02
 126979157.325 7  98944787.34845                  24163337.185    24163336.878
                  24163331.991                          46.000          31.0004

 129850789.821 7 101182440.46244                  24709783.458    24709783.972
                  24709780.850                          43.000          29.0004

 125049898.682 7  97441469.74945                  23796207.123    23796206.513
                  23796205.364                          44.000          34.0004

 123314992.706 7  96089599.58345                  23466058.913    23466058.540
                  23466053.858                          46.000          32.0004

 123475558.778 6  96214709.83845                  23496618.857    23496618.099
                  23496615.675                          41.000          31.0004

 116187673.829 8  90535848.89846                  22109777.328    22109776.977
                  22109771.674                          52.000          41.0004

 105914726.180 9  82530955.42748                  20154898.425    20154898.599
                  20154892.484                          54.000          49.0004

 111619519.774 8  86976248.02547                  21240486.139    21240484.974
                  21240477.127                          50.000          46.0004

 19  9 29 16  2 30.0000000  0  8G12G09G06G13G25G29G05G02
 127078618.644 7  99022289.63245                  24182264.106    24182263.913
                  24182258.883                          45.000          31.0004

 129934489.717 7 101247661.12644                  24725711.378    24725710.851
                  24725708.546                          43.000          28.0004

 125128922.270 7  97503046.54145                  23811244.594    23811244.091
                  23811243.072                          43.000          33.0004

 123208688.689 7  96006765.32045                  23445829.605    23445829.476
                  23445824.842                          45.000          31.0004

 123535783.070 7  96261637.83645                  23508079.072    23508078.684
                  23508076.310                          44.000          31.0004

 116108238.207 8  90473951.02147                  22094661.457    22094661.153
                  22094655.406                          52.000          42.0004

 105905908.938 9  82524084.84548                  20153220.524    20153220.632
                  20153214.502                          55.000          49.0004

 111638613.413 8  86991126.17447                  21244119.332    21244118.417
                  21244110.469                          51.000          45.0004

 19  9 29 16  3  0.0000000  0  8G12G09G06G13G25G29G05G02
 127178149.468 7  99099846.06845                  24201203.831    24201203.717
                  24201199.151                          44.000          30.0004

 130018538.294 7 101313153.49844                  24741705.379    24741705.337
                  24741702.676                          42.000          29.0004

 125208070.597 7  97564720.49445                  23826306.301    23826305.211
                  23826304.293                          44.000          33.0004

 123102527.990 7  95924042.72245                  23425627.830    23425627.611
                  23425622.884                          44.000          30.0004

 123596401.946 7  96308873.27745                  23519614.102    23519613.863
                  23519611.818                          44.000          31.0004

 116029159.060 8  90412330.92047                  22079613.143    22079613.130
                  22079606.999                          53.000          42.0004

 105897558.404 9  82517577.93348                  20151631.553    20151631.505
                  20151625.505                          55.000          49.0004

 111657943.846 8  87006188.84047                  21247797.677    21247796.748
                  21247789.094                          50.000          45.0004

 19  9 29 16  3 30.0000000  0  8G12G09G06G13G25G29G05G02
 127277750.914 7  99177457.54145                  24220157.522    24220157.107
                  24220152.683                          42.000          30.0004

 130102937.441 6 101378919.03844                  24757765.679    24757765.040
                  24757763.499                          40.000          27.0004

 125287347.646 7  97626494.77545                  23841392.331    23841392.688
                  23841390.379                          47.000          34.0004

 122996517.849 7  95841437.45244                  23405454.580    23405454.237
                  23405449.453                          43.000          29.0004

 123657416.945 7  96356417.40145                  23531225.580    23531224.644
                  23531222.232                          42.000          31.0004

 115950443.686 8  90350994.27347                  22064634.152    22064633.951
                  22064627.966                          52.000          42.0004

 105889678.600 9  82511437.82448                  20150131.909    20150132.025
                  20150126.107                          54.000          49.0004

 111677516.173 8  87021440.00147                  21251522.101    21251521.350
                  21251513.585                          51.000          46.0004

 19  9 29 16  4  0.0000000  0  8G12G09G06G13G25G29G05G02
 127377419.121 7  99255121.01945                  24239123.884    24239123.772
                  24239119.005                          44.000          30.0004

 130187683.423 7 101444954.82244                  24773892.784    24773892.172
                  24773889.755                          42.000          28.0004

 125366752.132 7  97688368.36145                  23856502.427    23856502.228
                  23856500.237                          44.000          33.0004

 122890660.422 7  95758951.18544                  23385310.423    23385310.451
                  23385305.579                          42.000          28.0004

 123718824.061 7  96404267.06945                  23542910.599    23542909.967
                  23542907.915                          44.000          31.0004

 115872093.377 8  90289942.09947                  22049724.388    22049724.110
                  22049718.447                          51.000          42.0004

 105882267.368 8  82505662.83748                  20148721.740    20148721.757
                  20148715.833                          53.000          49.0004

 111697329.808 8  87036879.18747                  21255292.652    21255291.820
                  21255283.967                          50.000          46.0004

 19  9 29 16  4 30.0000000  0  8G12G09G06G13G25G29G05G02
 127477146.857 7  99332830.89744                  24258100.818    24258100.911
                  24258096.512                          42.000          29.0004

 130272770.527 7 101511256.43344                  24790084.105    24790082.964
                  24790081.800                          42.000          28.0004

 125446280.598 7  97750338.53345                  23871636.074    23871635.662
                  23871633.874                          46.000          32.0004

 122784955.650 7  95676583.86244                  23365195.599    23365195.403
                  23365190.484                          44.000          28.0004

 123780617.333 7  96452417.63745                  23554669.649    23554668.864
                  23554666.564                          44.000          31.0004

 115794107.467 8  90229173.87547                  22034884.061    22034883.878
                  22034878.179                          53.000          42.0004

 105875320.453 9  82500249.65348                  20147399.780    20147399.910
                  20147393.874                          54.000          49.0004

 111717382.034 8  87052504.28447                  21259108.446    21259107.545
                  21259099.620                          49.000          45.0004

 19  9 29 16  5  0.0000000  0  8G12G09G06G13G25G29G05G02
 127576934.559 7  99410587.47244                  24277090.243    24277089.918
                  24277085.487                          42.000          29.0004

 130358199.276 7 101577824.22444                  24806340.554    24806340.089
                  24806338.448                          44.000          28.0004

 125525935.876 7  97812407.53145                  23886794.087    23886793.961
                  23886792.334                          46.000          33.0004

 122679409.438 7  95594340.09344                  23345110.715    23345110.690
                  23345106.053                          44.000          29.0004

 123842796.950 7  96500869.25645                  23566501.742    23566501.167
                  23566499.560                          44.000          32.0004

 115716491.921 8  90168694.23947                  22020114.465    22020114.254
                  22020108.330                          52.000          42.0004

 105868840.911 9  82495200.65748                  20146166.819    20146166.917
                  20146160.852                          56.000          49.0004

 111737676.338 8  87068318.02047                  21262970.352    21262969.357
                  21262961.420                          51.000          45.0004

 19  9 29 16  5 30.0000000  0  9G12G15G09G06G13G25G29G05G02
 127676777.509 7  99488387.08245                  24296089.859    24296089.937
                  24296085.648                          43.000          30.0004

 132483035.763 6 103233525.74543                  25210682.939    25210683.021
                  25210678.907                          41.000          23.0004

 130443965.218 6 101644654.82144                  24822660.830    24822660.299
                  24822658.061                          41.000          26.0004

 125605715.758 7  97874573.64745                  23901975.357    23901974.890
                  23901973.913                          43.000          32.0004

 122574023.618 7  95512221.32644                  23325056.202    23325055.924
                  23325051.425                          43.000          28.0004

 123905358.223 7  96549618.25545                  23578406.558    23578406.140
                  23578404.375                          43.000          32.0004

 115639247.178 8  90108503.53947                  22005415.268    22005415.214
                  22005408.997                          53.000          42.0004

 105862825.162 9  82490513.05648                  20145021.989    20145022.038
                  20145016.028                          54.000          49.0004

 111758211.572 8  87084319.49447                  21266878.019    21266877.126
                  21266869.219                          51.000          45.0004

 19  9 29 16  6  0.0000000  0  9G12G15G09G06G13G25G29G05G02
 127776669.747 7  99566225.11045                  24315098.615    24315098.987
                  24315094.620                          44.000          30.0004

 132363668.896 7 103140512.62844                  25187968.057    25187967.689
                  25187964.193                          42.000          28.0004

 130530063.411 6 101711744.28044                  24839045.349    24839044.430
                  24839042.679                          41.000          28.0004

 125685617.730 7  97936834.84645                  23917180.230    23917179.001
                  23917178.561                          42.000          31.0004

 122468798.206 7  95430227.51845                  23305032.609    23305032.753
                  23305028.247                          43.000          30.0004

 123968295.856 7  96598660.53345                  23590383.760    23590382.921
                  23590380.913                          44.000          32.0004

 115562373.570 8  90048602.03047                  21990786.813    21990786.429
                  21990780.314                          53.000          42.0004

 105857270.249 9  82486184.55248                  20143965.008    20143964.887
                  20143958.905                          54.000          49.0004

 111778985.722 8  87100507.13447                  21270831.466    21270830.528
                  21270822.489                          51.000          45.0004

 19  9 29 16  6 30.0000000  0  9G12G15G09G06G13G25G29G05G02
 127876610.679 7  99644101.07545                  24334117.239    24334116.822
                  24334112.662                          44.000          31.0004

 132244251.024 6 103047459.78344                  25165243.205    25165243.366
                  25165240.147                          41.000          25.0004

 130616493.553 6 101779092.37444                  24855492.856    24855491.854
                  24855489.612                          40.000          27.0004

 125765643.753 7  97999192.72845                  23932409.080    23932408.792
                  23932406.909                          43.000          32.0004

 122363738.739 7  95348363.05045                  23285040.734    23285040.513
                  23285035.865                          44.000          31.0004

 124031609.257 7  96647995.62545                  23602431.796    23602431.359
                  23602429.026                          44.000          32.0004

 115485875.976 8  89988993.52446                  21976229.423    21976229.151
                  21976223.342                          52.000          41.0004

 105852178.111 9  82482216.65048                  20142996.058    20142995.944
                  20142989.905                          54.000          48.0004

 111800001.499 8  87116883.05947                  21274830.486    21274829.690
                  21274821.746                          50.000          45.0004

 19  9 29 16  7  0.0000000  0  9G12G15G09G06G13G25G29G05G02
 127976594.658 7  99722010.60145                  24353143.925    24353143.121
                  24353138.528                          46.000          31.0004

 132124782.282 7 102954367.26244                  25142509.693    25142509.155
                  25142505.816                          42.000          24.0004

 130703250.636 7 101846695.26344                  24872001.995    24872001.328
                  24871999.321                          43.000          28.0004

 125845791.050 7  98061645.13245                  23947660.225    23947659.817
                  23947658.855                          43.000          32.0004

 122258846.057 7  95266628.51545                  23265080.536    23265080.436
                  23265075.679                          46.000          32.0004

 124095293.087 7  96697619.34545                  23614550.513    23614549.858
                  23614548.163                          44.000          32.0004

 115409754.571 8  89929678.15746                  21961744.021    21961743.631
                  21961737.866                          52.000          41.0004

 105847545.319 8  82478606.68648                  20142114.306    20142114.292
                  20142108.371                          53.000          48.0004

 111821257.279 8  87133445.99947                  21278875.289    21278874.691
                  21278866.624                          51.000          45.0004

 19  9 29 16  7 30.0000000  0  9G12G15G09G06G13G25G29G05G02
 128076617.941 7  99799950.76845                  24372177.208    24372177.499
                  24372172.256                          46.000          31.0004

 132005264.522 6 102861236.56744                  25119766.065    25119765.613
                  25119762.211                          41.000          24.0004

 130790331.663 6 101914550.54844                  24888572.859    24888572.349
                  24888570.403                          40.000          27.0004

 125926059.032 7  98124191.52045                  23962934.987    23962935.149
                  23962933.618                          42.000          31.0004

 122154122.958 7  95185026.12645                  23245152.097    23245152.076
                  23245147.349                          46.000          33.0004

 124159344.033 7  96747529.14545                  23626738.732    23626738.188
                  23626736.543                          44.000          32.0004

 115334011.514 8  89870657.60147                  21947330.739    21947330.446
                  21947324.628                          52.000          42.0004

 105843370.496 8  82475353.57648                  20141319.931    20141319.811
                  20141313.957                          53.000          48.0004

 111842752.909 8  87150195.83047                  21282965.913    21282965.045
                  21282957.093                          50.000          45.0004

 19  9 29 16  8  0.0000000  0  9G12G15G09G06G13G25G29G05G02
 128176676.693 7  99877918.55545                  24391218.302    24391218.115
                  24391213.354                          46.000          32.0004

 131885699.154 7 102768068.74143                  25097013.312    25097013.470
                  25097010.015                          42.000          23.0004

 130877732.792 7 101982655.26144                  24905204.842    24905204.690
                  24905201.942                          42.000          27.0004

 126006446.145 7  98186830.77045                  23978232.755    23978232.233
                  23978230.333                          44.000          32.0004

 122049571.026 7  95103557.11045                  23225256.708    23225256.859
                  23225251.840                          45.000          33.0004

 124223757.934 7  96797721.75545                  23638996.600    23638996.025
                  23638994.112                          42.000          33.0004

 115258648.052 8  89811932.82947                  21932989.749    21932989.378
                  21932983.595                          52.000          43.0004

 105839651.471 8  82472455.63648                  20140612.005    20140612.135
                  20140606.168                          53.000          49.0004

 111864487.664 8  87167131.99947                  21287101.819    21287101.048
                  21287093.180                          51.000          45.0004

 19  9 29 16  8 30.0000000  0  9G12G15G09G06G13G25G29G05G02
 128276769.989 7  99955913.28345                  24410265.160    24410265.095
                  24410260.073                          44.000          30.0004

 131766091.156 6 102674867.72644                  25074253.135    25074252.910
                  25074248.787                          41.000          24.0004

 130965454.061 7 102051009.47244                  24921897.758    24921897.741
                  24921895.067                          42.000          26.0004

 126086954.663 7  98249564.64045                  23993552.509    23993552.283
                  23993550.333                          44.000          31.0004

 121945196.041 7  95022225.98145                  23205394.971    23205394.958
                  23205389.886                          44.000          33.0004

 124288534.457 7  96848196.92645                  23651323.405    23651322.714
                  23651320.536                          43.000          33.0004

 115183669.376 8  89753507.89747                  21918721.637    21918721.219
                  21918715.540                          50.000          42.0004

 105836390.048 8  82469914.26648                  20139991.759    20139991.596
                  20139985.547                          53.000          48.0004

 111886464.979 8  87184257.17147                  21291283.848    21291283.000
                  21291275.441                          50.000          45.0004

 19  9 29 16  9  0.0000000  0  9G12G15G09G06G13G25G29G05G02
 128376894.141 7 100033932.05645                  24429318.276    24429318.131
                  24429312.666                          45.000          30.0004

 131646442.404 7 102581634.95544                  25051483.716    25051484.300
                  25051480.345                          42.000          24.0004

 131053492.265 7 102119610.60744                  24938650.786    24938650.932
                  24938648.754                          42.000          28.0004

 126167583.841 7  98312392.51845                  24008895.857    24008895.382
                  24008893.527                          44.000          32.0004

 121841000.599 7  94941034.75945                  23185566.792    23185566.999
                  23185562.154                          46.000          33.0004

 124353670.144 7  96898951.97645                  23663717.981    23663717.686
                  23663715.504                          44.000          32.0004

 115109077.770 8  89695384.58147                  21904527.106    21904526.869
                  21904521.349                          53.000          42.0004

 105833584.481 9  82467728.10748                  20139457.658    20139457.640
                  20139451.706                          54.000          48.0004

 111908684.578 8  87201571.14347                  21295512.318    21295511.143
                  21295503.712                          50.000          45.0004

 19  9 29 16  9 30.0000000  0  9G12G15G09G06G13G25G29G05G02
 128477047.813 7 100111973.81844                  24448376.721    24448376.597
                  24448371.150                          46.000          28.0004

 131526756.792 7 102488373.46544                  25028708.558    25028709.300
                  25028704.921                          42.000          24.0004

 131141846.192 7 102188457.78644                  24955463.399    24955464.173
                  24955461.669                          42.000          27.0004

 126248334.742 7  98375315.23745                  24024262.069    24024261.986
                  24024260.562                          44.000          31.0004

 121736989.024 7  94859986.82545                  23165774.012    23165774.004
                  23165769.196                          45.000          32.0004

 124419163.411 7  96949985.64945                  23676180.819    23676180.719
                  23676178.820                          43.000          32.0004

 115034876.699 8  89637565.57847                  21890407.105    21890406.885
                  21890401.526                          53.000          42.0004

 105831235.750 9  82465897.92648                  20139010.663    20139010.718
                  20139004.757                          54.000          49.0004

 111931148.407 8  87219075.41347                  21299787.046    21299785.745
                  21299778.536                          51.000          46.0004

 19  9 29 16 10  0.0000000  0  9G12G15G09G06G13G25G29G05G02
 128577227.170 7 100190035.62744                  24467439.863    24467440.222
                  24467435.306                          44.000          26.0004

 131407036.515 7 102395084.99443                  25005926.661    25005927.159
                  25005922.340                          42.000          23.0004

 131230512.831 6 102257548.64744                  24972336.649    24972336.169
                  24972334.732                          41.000          25.0004

 126329206.661 7  98438332.27045                  24039652.095    24039652.494
                  24039650.111                          45.000          33.0004

 121633164.200 7  94779084.41745                  23146016.391    23146016.529
                  23146011.879                          45.000          32.0004

 124485010.899 7  97001295.34245                  23688711.568    23688710.996
                  23688709.120                          43.000          32.0004

 114961068.687 8  89580052.84847                  21876361.995    21876361.883
                  21876356.294                          52.000          43.0004

 105829342.292 9  82464422.50448                  20138650.356    20138650.449
                  20138644.384                          54.000          48.0004

 111953856.331 8  87236769.88647                  21304108.093    21304106.950
                  21304099.736                          49.000          45.0004

 19  9 29 16 10 30.0000000  0  9G12G15G09G06G13G25G29G05G02
 128677428.781 7 100268114.74244                  24486507.956    24486507.586
                  24486502.759                          43.000          25.0004

 131287283.553 6 102301771.08843                  24983137.704    24983138.313
                  24983134.058                          38.000          21.0004

 131319489.420 6 102326880.99144                  24989268.026    24989268.084
                  24989266.504                          41.000          27.0004

 126410199.200 7  98501443.29945                  24055064.259    24055064.423
                  24055062.867                          43.000          33.0004

 121529529.260 7  94698329.98545                  23126295.647    23126295.567
                  23126290.571                          45.000          32.0004

 124551209.558 7  97052878.67545                  23701308.121    23701307.647
                  23701306.267                          43.000          30.0004

 114887656.115 8  89522848.25647                  21862392.244    21862391.851
                  21862386.355                          53.000          43.0004

 105827903.221 8  82463301.15348                  20138376.610    20138376.626
                  20138370.538                          53.000          49.0004

 111976809.157 8  87254655.19347                  21308475.921    21308474.899
                  21308467.495                          51.000          45.0004

 19  9 29 16 11  0.0000000  0  9G12G15G09G06G13G25G29G05G02
 128777654.687 6 100346212.81844                  24505579.870    24505579.560
                  24505575.667                          41.000          24.0004

 131167505.347 6 102208437.55743                  24960345.039    24960345.088
                  24960341.308                          38.000          22.0004

 131408778.021 6 102396456.43744                  25006259.448    25006258.793
                  25006257.887                          41.000          27.0004

 126491316.703 7  98564651.66245                  24070500.136    24070499.495
                  24070498.709                          42.000          31.0004

 121426091.689 7  94617729.34245                  23106612.014    23106611.823
                  23106607.267                          45.000          33.0004

 124617760.946 7  97104736.86745                  23713972.558    23713972.134
                  23713970.485                          42.000          30.0004

 114814645.886 8  89465957.17947                  21848498.604    21848498.363
                  21848492.878                          51.000          42.0004

 105826922.086 8  82462536.63248                  20138189.788    20138189.947
                  20138183.862                          53.000          49.0004

 112000011.684 8  87272735.07247                  21312891.142    21312890.332
                  21312882.820                          50.000          46.0004

 19  9 29 16 11 30.0000000  0  9G12G15G09G06G13G25G29G05G02
 128877895.295 7 100424322.30744                  24524655.520    24524654.857
                  24524651.232                          42.000          25.0004

 131047697.891 6 102115081.24944                  24937545.710    24937546.760
                  24937542.843                          40.000          24.0004

 131498369.661 6 102466268.09544                  25023308.325    25023307.297
                  25023306.177                          40.000          24.0004

 126572552.585 7  98627952.28545                  24085959.074    24085959.233
                  24085958.246                          43.000          33.0004

 121322848.067 7  94537279.82545                  23086965.291    23086965.187
                  23086960.205                          45.000          32.0004

 124684655.873 7  97156862.74845                  23726702.501    23726701.780
                  23726700.230                          43.000          30.0004

 114742034.633 8  89409376.99947                  21834681.140    21834680.798
                  21834675.271                          52.000          43.0004

 105826391.591 9  82462123.26048                  20138088.892    20138088.903
                  20138082.936                          54.000          49.0004

 112023458.151 8  87291005.04147                  21317352.892    21317352.084
                  21317344.528                          51.000          46.0004

 19  9 29 16 12  0.0000000  0  9G12G15G09G06G13G25G29G05G02
 128978148.112 7 100502441.32144                  24543732.784    24543733.044
                  24543728.730                          44.000          26.0004

 130927864.490 7 102021704.72944                  24914742.372    24914743.428
                  24914739.058                          45.000          27.0004

 131588262.339 6 102536314.28844                  25040413.521    25040412.797
                  25040412.762                          38.000          25.0004

 126653907.099 7  98691345.33445                  24101440.860    24101440.827
                  24101439.544                          45.000          33.0004

 121219802.299 7  94456984.48645                  23067356.282    23067356.031
                  23067351.268                          44.000          32.0004

 124751891.877 7  97209254.39944                  23739496.942    23739496.352
                  23739494.907                          42.000          29.0004

 114669825.299 8  89353109.99247                  21820940.352    21820939.939
                  21820934.290                          53.000          43.0004

 105826311.208 8  82462060.62248                  20138073.566    20138073.512
                  20138067.626                          53.000          49.0004

 112047149.616 8  87309465.91447                  21321861.352    21321860.585
                  21321852.649                          50.000          45.0004

 19  9 29 16 12 30.0000000  0  9G12G15G09G06G13G25G29G05G02
 129078407.772 7 100580565.63844                  24562812.603    24562812.278
                  24562807.137                          43.000          28.0004

 130808005.103 7 101928307.94044                  24891934.181    24891935.188
                  24891930.373                          44.000          28.0004

 131678451.102 6 102606591.17444                  25057576.693    25057575.814
                  25057575.067                          41.000          26.0004

 126735377.701 7  98754828.85345                  24116944.179    24116943.962
                  24116942.678                          45.000          33.0004

 121116955.619 7  94376844.27645                  23047785.108    23047785.022
                  23047780.204                          44.000          32.0004

 124819463.738 6  97261907.75844                  23752355.375    23752354.776
                  23752353.367                          41.000          29.0004

 114598017.980 8  89297156.24147                  21807275.923    21807275.542
                  21807269.818                          53.000          44.0004

 105826678.368 9  82462346.71748                  20138143.400    20138143.469
                  20138137.538                          54.000          49.0004

 112071084.615 8  87328116.55447                  21326416.058    21326415.298
                  21326407.464                          51.000          46.0004

 19  9 29 16 13  0.0000000  0  9G12G15G09G06G13G25G29G05G02
 129178675.002 7 100658695.87844                  24581892.362    24581892.301
                  24581887.391                          45.000          28.0004

 130688126.223 7 101834895.93644                  24869121.581    24869122.896
                  24869118.345                          43.000          28.0004

 131768937.223 6 102677099.81944                  25074795.819    25074794.672
                  25074793.893                          39.000          25.0004

 126816968.041 7  98818405.69045                  24132470.459    24132470.345
                  24132467.751                          43.000          32.0004

 121014314.450 7  94296864.21145                  23028253.330    23028252.746
                  23028248.185                          44.000          32.0004

 124887372.309 7  97314823.47844                  23765277.978    23765277.319
                  23765276.014                          42.000          29.0004

 114526619.218 8  89241520.84547                  21793689.063    21793688.703
                  21793683.098                          53.000          44.0004

 105827495.603 8  82462983.52348                  20138298.921    20138299.056
                  20138293.082                          53.000          49.0004

 112095267.138 8  87346960.07547                  21331017.788    21331016.945
                  21331009.083                          51.000          45.0004

 19  9 29 16 13 30.0000000  0  9G12G15G09G06G13G25G29G05G02
 129278947.730 7 100736830.40845                  24600973.658    24600973.835
                  24600969.324                          44.000          31.0004

 130568230.800 7 101741471.02244                  24846306.897    24846307.415
                  24846302.549                          42.000          26.0004

 131859718.806 6 102747838.67144                  25092070.672    25092070.186
                  25092068.602                          41.000          25.0004

 126898678.436 7  98882076.06545                  24148019.552    24148019.822
                  24148018.151                          44.000          33.0004

 120911882.555 7  94217047.20145                  23008761.158    23008760.537
                  23008755.816                          46.000          32.0004

 124955615.266 7  97367999.76544                  23778264.654    23778263.708
                  23778262.020                          42.000          29.0004

 114455632.272 8  89186206.35847                  21780180.775    21780180.248
                  21780174.651                          53.000          43.0004

 105828762.621 9  82463970.80248                  20138540.128    20138540.127
                  20138534.212                          54.000          49.0004

 112119698.626 8  87365997.59247                  21335666.724    21335666.104
                  21335658.268                          53.000          45.0004

 19  9 29 16 14  0.0000000  0  9G12G15G09G06G13G25G29G05G02
 129379223.589 7 100814967.36745                  24620055.866    24620055.539
                  24620050.833                          45.000          31.0004

 130448322.530 7 101648036.08344                  24823488.476    24823489.159
                  24823484.778                          44.000          27.0004

 131950793.998 6 102818806.30844                  25109401.605    25109401.455
                  25109399.732                          41.000          27.0004

 126980509.446 7  98945840.44445                  24163591.262    24163591.141
                  24163590.299                          43.000          33.0004

 120809664.260 7  94137396.63445                  22989309.487    22989309.118
                  22989304.289                          47.000          32.0004

 125024190.473 7  97421434.95444                  23791314.017    23791313.323
                  23791311.246                          43.000          29.0004

 114385060.690 9  89131215.53347                  21766751.460    21766750.902
                  21766745.175                          54.000          43.0004

 105830479.494 8  82465308.62348                  20138866.790    20138866.737
                  20138860.901                          53.000          49.0004

 112144380.327 8  87385230.07647                  21340363.748    21340363.003
                  21340354.970                          52.000          45.0004

 19  9 29 16 14 30.0000000  0  9G12G15G09G06G13G25G29G05G02
 129479496.454 7 100893102.00645                  24639137.468    24639137.305
                  24639132.643                          46.000          32.0004

 130328400.520 7 101554590.42544                  24800668.672    24800668.349
                  24800664.306                          44.000          27.0004

 132042157.163 6 102889998.36044                  25126787.918    25126787.260
                  25126784.827                          39.000          24.0004

 127062457.815 7  99009696.22345                  24179184.935    24179184.430
                  24179183.713                          43.000          30.0004

 120707659.666 7  94057912.58345                  22969898.783    22969898.558
                  22969893.570                          46.000          33.0004

 125093091.769 7  97475124.25144                  23804425.859    23804424.891
                  23804422.965                          42.000          29.0004

 114314903.647 8  89076547.72047                  21753400.963    21753400.614
                  21753394.748                          52.000          43.0004

 105832641.546 9  82466993.33448                  20139278.296    20139278.255
                  20139272.348                          54.000          49.0004

 112169309.831 8  87404655.65447                  21345107.662    21345106.922
                  21345098.857                          51.000          46.0004

 19  9 29 16 15  0.0000000  0  9G12G15G09G06G13G25G29G05G02
 129579766.355 7 100971234.33345                  24658218.040    24658217.718
                  24658213.018                          45.000          31.0004

 130208470.675 7 101461138.66544                  24777846.555    24777846.121
                  24777842.047                          43.000          26.0004

 132133808.657 6 102961415.06444                  25144228.899    25144228.437
                  25144225.196                          41.000          24.0004

 127144526.111 7  99073645.47245                  24194802.895    24194802.501
                  24194801.019                          43.000          31.0004

 120605874.518 7  93978599.52145                  22950529.683    22950529.249
                  22950524.359                          47.000          34.0004

 125162319.240 7  97529067.70444                  23817599.675    23817598.553
                  23817596.434                          43.000          29.0004

 114245166.801 8  89022207.33047                  21740130.496    21740130.223
                  21740124.165                          52.000          43.0004

 105835250.937 8  82469026.61848                  20139774.774    20139774.791
                  20139768.925                          53.000          49.0004

 112194490.700 8  87424277.10947                  21349899.386    21349898.651
                  21349890.693                          50.000          46.0004

 19  9 29 16 15 30.0000000  0  9G12G15G09G06G13G25G29G05G02
 129680028.047 7 101049360.27645                  24677297.188    24677296.797
                  24677292.309                          46.000          30.0004

 130088532.978 6 101367680.76444                  24755022.880    24755022.565
                  24755018.501                          41.000          24.0004

 132225743.427 6 103033052.56444                  25161723.090    25161723.439
                  25161719.630                          41.000          24.0004

 127226711.690 7  99137686.14145                  24210442.229    24210441.713
                  24210440.728                          42.000          32.0004

 120504309.618 7  93899458.08845                  22931202.352    22931202.216
                  22931197.260                          46.000          33.0004

 125231867.365 6  97583261.02144                  23830833.672    23830833.346
                  23830831.460                          41.000          29.0004

 114175850.131 8  88968194.34747                  21726940.061    21726939.523
                  21726933.808                          53.000          43.0004

 105838304.545 9  82471406.04848                  20140355.958    20140355.884
                  20140350.044                          54.000          49.0004

 112219921.052 8  87444092.95147                  21354738.670    21354737.793
                  21354730.016                          51.000          45.0004

 19  9 29 16 16  0.0000000  0  9G12G15G09G06G13G25G29G05G02
 129780279.506 7 101127478.23044                  24696374.428    24696374.564
                  24696369.712                          45.000          29.0004

 129968590.982 6 101274219.49243                  24732198.256    24732197.800
                  24732194.466                          40.000          21.0004

 132317960.202 6 103104909.76943                  25179271.040    25179271.482
                  25179267.768                          39.000          23.0004

 127309015.575 6  99201818.95245                  24226103.758    24226102.877
                  24226102.999                          41.000          30.0004

 120402969.327 7  93820491.65245                  22911918.170    22911918.130
                  22911912.511                          46.000          34.0004

 125301734.424 7  97637702.84344                  23844128.901    23844128.610
                  23844126.681                          42.000          29.0004

 114106957.570 8  88914511.84147                  21713830.043    21713829.662
                  21713823.944                          52.000          44.0004

 105841803.001 9  82474132.11348                  20141021.735    20141021.602
                  20141015.786                          54.000          49.0004

 112245602.204 8  87464104.21947                  21359625.586    21359624.679
                  21359617.078                          52.000          45.0004

 19  9 29 16 16 30.0000000  0  9G12G15G09G06G13G25G29G05G02
 129880518.083 7 101205586.14444                  24715448.726    24715448.628
                  24715444.798                          43.000          27.0004

 129848647.837 6 101180757.32943                  24709374.058    24709373.873
                  24709370.437                          40.000          22.0004

 132410456.544 6 103176984.79544                  25196872.967    25196873.014
                  25196870.054                          41.000          25.0004

 127391437.713 7  99266043.89945                  24241788.466    24241788.522
                  24241787.330                          44.000          31.0004

 120301857.024 7  93741702.88145                  22892676.988    22892677.320
                  22892671.496                          47.000          34.0004

 125371917.654 7  97692391.03445                  23857484.708    23857483.945
                  23857482.047                          42.000          30.0004

 114038491.927 9  88861162.00347                  21700801.474    21700801.030
                  21700795.468                          54.000          44.0004

 105845745.107 8  82477203.87948                  20141771.933    20141771.721
                  20141765.894                          53.000          49.0004

 112271535.356 8  87484311.84947                  21364560.515    21364559.707
                  21364552.049                          51.000          45.0004

 19  9 29 16 17  0.0000000  0  9G12G15G09G06G13G25G29G05G02
 129980741.200 7 101283682.01044                  24734521.459    24734520.645
                  24734516.137                          44.000          27.0004

 129728706.509 7 101087296.57944                  24686549.906    24686550.267
                  24686546.052                          43.000          26.0004

 132503230.263 7 103249275.98944                  25214527.293    25214527.412
                  25214523.707                          42.000          24.0004

 127473978.205 7  99330361.10245                  24257495.607    24257495.314
                  24257493.918                          42.000          30.0004

 120200976.432 7  93663094.64345                  22873480.062    22873480.247
                  22873474.663                          46.000          34.0004

 125442414.462 7  97747323.57445                  23870899.537    23870899.022
                  23870897.498                          43.000          30.0004

 113970455.884 8  88808146.91047                  21687854.746    21687854.323
                  21687848.478                          51.000          44.0004

 105850130.399 9  82480620.98648                  20142606.458    20142606.296
                  20142600.386                          54.000          49.0004

 112297721.467 8  87504716.60947                  21369543.515    21369542.558
                  21369535.253                          51.000          45.0004

 19  9 29 16 17 30.0000000  0  9G12G15G09G06G13G25G29G05G02
 130080944.416 7 101361762.38944                  24753588.936    24753588.684
                  24753584.118                          43.000          26.0004

 129608768.131 7 100993838.13044                  24663727.060    24663726.612
                  24663722.542                          43.000          27.0004

 132596277.069 6 103321779.96844                  25232233.281    25232233.080
                  25232231.037                          39.000          25.0004

 127556635.285 6  99394769.16244                  24273224.165    24273223.262
                  24273222.536                          41.000          28.0004

 120100329.022 7  93584668.12045                  22854327.386    22854327.407
                  22854321.808                          47.000          34.0004

 125513220.157 7  97802496.80144                  23884374.055    23884373.119
                  23884371.292                          43.000          29.0004

 113902850.622 8  88755467.48347                  21674989.813    21674989.397
                  21674983.750                          52.000          43.0004

 105854955.887 9  82484381.10248                  20143524.697    20143524.638
                  20143518.654                          55.000          49.0004

 112324159.396 8  87525317.58447                  21374574.572    21374573.681
                  21374566.204                          52.000          45.0004

 19  9 29 16 18  0.0000000  0  9G12G15G09G06G13G25G29G05G02
 130181125.335 7 101439825.33844                  24772652.800    24772652.500
                  24772647.755                          42.000          24.0004

 129488835.771 7 100900384.37644                  24640904.299    24640904.180
                  24640900.291                          44.000          28.0004

 132689595.139 6 103394495.27643                  25249990.911    25249990.280
                  25249989.071                          41.000          22.0004

 127639409.141 7  99459268.18644                  24288975.896    24288975.501
                  24288974.507                          43.000          29.0004

 119999918.556 7  93506426.22545                  22835219.919    22835219.530
                  22835214.534                          46.000          34.0004

 125584332.386 7  97857908.89845                  23897905.679    23897905.241
                  23897903.750                          42.000          30.0004

 113835679.098 8  88703126.03947                  21662207.437    21662206.984
                  21662201.402                          52.000          43.0004

 105860220.904 8  82488483.70648                  20144526.502    20144526.331
                  20144520.550                          53.000          49.0004

 112350849.984 8  87546115.43247                  21379653.557    21379652.801
                  21379645.222                          50.000          46.0004

 19  9 29 16 18 30.0000000  0  9G12G15G09G06G13G25G29G05G02
 130281276.483 6 101517865.15044                  24791711.172    24791710.669
                  24791706.166                          41.000          24.0004

 129368907.398 7 100806933.70145                  24618082.886    24618082.623
                  24618078.623                          45.000          30.0004

 132783177.123 6 103467416.30143                  25267800.118    25267798.873
                  25267797.277                          41.000          23.0004

 127722294.974 7  99523854.47745                  24304748.751    24304748.620
                  24304747.288                          43.000          30.0004

 119899743.404 7  93428367.71045                  22816157.119    22816156.928
                  22816152.302                          46.000          34.0004

 125655743.516 7  97913553.90445                  23911494.775    23911494.560
                  23911492.503                          43.000          30.0004

 113768939.469 8  88651121.14647                  21649507.273    21649506.908
                  21649501.464                          52.000          43.0004

 105865920.535 8  82492924.97548                  20145611.106    20145610.915
                  20145605.255                          52.000          49.0004

 112377789.574 8  87567107.30847                  21384780.283    21384779.389
                  21384771.636                          51.000          45.0004

 19  9 29 16 19  0.0000000  0  9G12G15G09G06G13G25G29G05G02
 130381399.716 6 101595883.17244                  24810763.893    24810763.381
                  24810758.993                          41.000          24.0004

 129248990.394 7 100713491.86545                  24595263.731    24595263.129
                  24595259.289                          45.000          31.0004

 132877025.408 6 103540544.82144                  25285657.807    25285657.443
                  25285656.373                          40.000          24.0004

 127805297.477 6  99588531.66644                  24320543.223    24320543.225
                  24320542.225                          41.000          29.0004

 119799811.847 7  93350498.99645                  22797140.952    22797140.457
                  22797135.923                          44.000          34.0004

 125727455.397 7  97969433.26145                  23925141.329    23925140.915
                  23925138.829                          42.000          30.0004

 113702638.706 9  88599458.21947                  21636890.882    21636890.466
                  21636884.909                          54.000          44.0004

 105872058.420 9  82497707.73448                  20146779.118    20146778.950
                  20146773.189                          54.000          49.0004

 112404983.476 8  87588297.35047                  21389954.951    21389954.450
                  21389946.365                          52.000          46.0004

 19  9 29 16 19 30.0000000  0  8G12G15G06G13G25G29G05G02
 130481489.539 7 101673875.19844                  24829810.273    24829809.920
                  24829805.517                          43.000          24.0004

 129129084.806 7 100620058.95645                  24572446.399    24572445.539
                  24572442.019                          44.000          31.0004

 127888413.630 6  99653297.43244                  24336359.898    24336359.666
                  24336358.349                          41.000          28.0004

 119700124.550 7  93272820.61745                  22778170.808    22778170.722
                  22778165.966                          47.000          34.0004

 125799462.300 7  98025542.49345                  23938844.135    23938843.288
                  23938841.351                          43.000          30.0004

