     2.11           OBSERVATION DATA    G (GPS)             RINEX VERSION / TYPE
teqc  2018Jun8      root                20191128 20:46:44UTCPGM / RUN BY / DATE
Linux 2.4.21-27.ELsmp|Opteron|gcc|Linux 64|=+               COMMENT
teqc  2019Feb25     CORS-ADM Account    20191031 19:06:54UTCCOMMENT
teqc  2019Feb25     NOAA/NOS/NGS/CORS   20190930 08:55:04UTCCOMMENT
BIT 2 OF LLI FLAGS DATA COLLECTED UNDER A/S CONDITION       COMMENT
 SNR is mapped to RINEX snr flag value [0-9]                COMMENT
  L1 & L2: min(max(int(snr_dBHz/6), 0), 9)                  COMMENT
teqc.e edited: all SBAS satellites excluded                 COMMENT
teqc.e edited: all QZSS satellites excluded                 COMMENT
pseudorange smoothing corrections not applied               COMMENT
rx serial #: 618-03100                                      COMMENT
Forced Modulo Decimation to 30 seconds                      COMMENT
LYCO                                                        MARKER NAME
Fran Jones          PA-081                                  OBSERVER / AGENCY
618-01994           TPS NET-G3A         4.7 Nov,23,2017 p6  REC # / TYPE / VERS
762-11000           TPSCR.G5        TPSH                    ANT # / TYPE
  1080274.0570 -4680045.2290  4182682.6660                  APPROX POSITION XYZ
        0.0000        0.0000        0.0000                  ANTENNA: DELTA H/E/N
     1     1                                                WAVELENGTH FACT L1/2
    11    L1    L2    L5    C1    P1    C2    P2    C5    S1# / TYPES OF OBSERV
          S2    S5                                          # / TYPES OF OBSERV
    30.0000                                                 INTERVAL
teqc.w windowed: start @ 2019 Sep 29 20:00:00.000           COMMENT
teqc.w windowed:  end  @ 2019 Sep 30 08:00:00.000           COMMENT
teqc.w edited: all GLONASS satellites excluded              COMMENT
teqc.w edited: all SBAS satellites excluded                 COMMENT
teqc.w edited: all Galileo satellites excluded              COMMENT
teqc.w edited: all Beidou satellites excluded               COMMENT
teqc.w edited: all QZSS satellites excluded                 COMMENT
  2019     9    29    20     0    0.0000000     GPS         TIME OF FIRST OBS
    18                                                      LEAP SECONDS
                                                            END OF HEADER
 19  9 29 20  0  0.0000000  0  9G15G21G13G24G10G32G04G20G27
 109184867.947 8  85079117.29547                  20777182.713    20777182.430
                  20777177.111                          53.000          46.0004

 110800839.229 8  86338314.50247                  21084695.106    21084694.098
                  21084688.290                          51.000          46.0004

 122564418.333 7  95504737.57745                  23323228.123    23323227.653
                  23323223.285                          44.000          30.0004

 113088054.426 8  88120567.32247                  21519934.583    21519934.632
                  21519932.247                          49.000          42.0004

 121832240.139 7  94934210.02646                  23183897.830    23183897.983
                  23183895.657                          46.000          36.0004

 132691288.668 6 103395807.75243                  25250311.412    25250311.734
                  25250311.013                          39.000          23.0004

 127031067.837 6  98985239.17944                  24173209.510    24173208.192
                  24173205.321                          41.000          24.0004

 110155965.810 8  85835822.62847                  20961976.332    20961975.408
                  20961970.332                          50.000          45.0004

 127324535.545 7  99213930.47745                  24229053.147    24229052.523
                  24229050.604                          42.000          31.0004

 19  9 29 20  0 30.0000000  0  9G15G21G13G24G10G32G04G20G27
 109243116.474 8  85124505.75847                  20788267.070    20788266.922
                  20788261.383                          53.000          46.0004

 110794916.286 8  86333699.22047                  21083568.033    21083566.913
                  21083561.066                          50.000          46.0004

 122662350.981 6  95581048.71045                  23341863.995    23341863.234
                  23341859.470                          41.000          30.0004

 113016867.387 8  88065096.93747                  21506388.301    21506388.159
                  21506385.727                          49.000          42.0004

 121752481.841 7  94872060.73646                  23168720.446    23168720.026
                  23168718.117                          46.000          37.0004

 132592608.388 6 103318914.14044                  25231533.574    25231533.491
                  25231532.365                          39.000          24.0004

 127056967.485 6  99005420.71544                  24178138.159    24178137.432
                  24178133.708                          40.000          25.0004

 110098768.228 8  85791253.09747                  20951092.181    20951091.226
                  20951086.006                          50.000          45.0004

 127312418.824 6  99204488.89645                  24226747.730    24226747.121
                  24226744.534                          40.000          31.0004

 19  9 29 20  1  0.0000000  0  9G15G21G13G24G10G32G04G20G27
 109301710.652 8  85170163.54947                  20799417.329    20799417.199
                  20799411.474                          53.000          46.0004

 110789467.344 8  86329453.29147                  21082531.070    21082530.192
                  21082524.439                          50.000          46.0004

 122760414.524 7  95657461.84144                  23360525.015    23360524.015
                  23360519.425                          42.000          29.0004

 112946151.784 8  88009993.89547                  21492931.538    21492931.687
                  21492929.024                          49.000          43.0004

 121672790.782 7  94809963.83146                  23153555.617    23153555.520
                  23153553.187                          45.000          36.0004

 132494029.203 6 103242099.30543                  25212774.309    25212774.465
                  25212773.488                          40.000          23.0004

 127083373.441 7  99025996.77644                  24183163.217    24183162.284
                  24183158.420                          42.000          25.0004

 110041803.544 8  85746865.04447                  20940252.147    20940251.297
                  20940245.943                          49.000          44.0004

 127300865.973 6  99195486.68845                  24224549.374    24224548.052
                  24224545.856                          41.000          30.0004

 19  9 29 20  1 30.0000000  0  9G15G21G13G24G10G32G04G20G27
 109360647.091 8  85216088.04247                  20810632.510    20810632.284
                  20810626.822                          53.000          46.0004

 110784491.610 8  86325576.09647                  21081584.300    21081583.159
                  21081577.619                          49.000          46.0004

 122858605.616 7  95733974.35645                  23379210.179    23379209.699
                  23379204.804                          45.000          30.0004

 112875908.095 8  87955258.58247                  21479564.798    21479564.603
                  21479562.003                          50.000          43.0004

 121593166.281 7  94747918.79646                  23138403.429    23138403.391
                  23138400.861                          46.000          36.0004

 132395550.916 6 103165363.11444                  25194034.366    25194034.463
                  25194033.259                          41.000          24.0004

 127110283.122 6  99046965.37144                  24188283.688    24188283.471
                  24188279.851                          41.000          26.0004

 109985071.968 8  85702658.63247                  20929456.601    20929455.582
                  20929450.366                          51.000          44.0004

 127289875.469 7  99186922.66645                  24222457.564    24222456.470
                  24222454.626                          42.000          30.0004

 19  9 29 20  2  0.0000000  0  9G15G21G13G24G10G32G04G20G27
 109419922.873 9  85262276.96247                  20821912.261    20821912.177
                  20821906.678                          54.000          46.0004

 110779989.218 8  86322067.74047                  21080727.487    21080726.321
                  21080720.789                          50.000          45.0004

 122956921.348 7  95810583.99644                  23397918.935    23397918.274
                  23397913.203                          42.000          29.0004

 112806138.450 8  87900892.65147                  21466288.045    21466288.037
                  21466285.260                          49.000          43.0004

 121513608.229 7  94685925.53346                  23123264.521    23123263.945
                  23123261.561                          45.000          37.0004

 132297173.753 6 103088705.69444                  25175313.822    25175313.733
                  25175312.524                          41.000          24.0004

 127137693.684 6  99068324.23044                  24193499.256    24193498.700
                  24193496.076                          40.000          26.0004

 109928573.609 8  85658633.94847                  20918705.098    20918704.076
                  20918699.040                          51.000          45.0004

 127279446.499 6  99178796.21344                  24220472.162    24220471.976
                  24220470.315                          41.000          29.0004

 19  9 29 20  2 30.0000000  0  9G15G21G13G24G10G32G04G20G27
 109479537.839 8  85308730.17647                  20833256.595    20833256.434
                  20833251.003                          53.000          46.0004

 110775962.470 8  86318930.01947                  21079961.100    21079960.107
                  21079954.486                          50.000          46.0004

 123055361.308 7  95887290.43445                  23416651.375    23416651.453
                  23416645.859                          44.000          30.0004

 112736847.922 8  87846900.05547                  21453102.359    21453102.466
                  21453099.594                          50.000          44.0004

 121434119.173 7  94623986.02646                  23108138.120    23108138.002
                  23108135.117                          46.000          37.0004

 132198900.606 6 103012129.32244                  25156612.107    25156612.317
                  25156612.335                          38.000          24.0004

 127165605.130 6  99090073.39744                  24198811.059    24198810.338
                  24198807.174                          41.000          26.0004

 109872311.737 8  85614793.54347                  20907998.931    20907997.726
                  20907992.646                          51.000          44.0004

 127269580.782 6  99171108.64444                  24218595.368    24218594.487
                  24218593.121                          40.000          29.0004

 19  9 29 20  3  0.0000000  0  9G15G21G13G24G10G32G04G20G27
 109539491.499 8  85355447.30947                  20844665.425    20844665.181
                  20844659.753                          53.000          46.0004

 110772413.463 8  86316164.56147                  21079285.709    21079284.731
                  21079279.217                          52.000          46.0004

 123153924.440 7  95964092.85045                  23435407.405    23435407.891
                  23435402.356                          45.000          30.0004

 112668039.358 8  87793283.02447                  21440008.489    21440008.372
                  21440005.682                          49.000          43.0004

 121354701.214 7  94562101.92746                  23093025.255    23093025.080
                  23093022.793                          47.000          38.0004

 132100734.008 6 102935635.97144                  25137931.414    25137931.937
                  25137931.230                          40.000          24.0004

 127194017.233 6  99112212.68444                  24204217.839    24204217.425
                  24204213.614                          40.000          26.0004

 109816289.201 8  85571139.63847                  20897338.043    20897336.967
                  20897331.785                          50.000          44.0004

 127260279.574 6  99163860.95744                  24216825.562    24216824.429
                  24216822.705                          40.000          29.0004

 19  9 29 20  3 30.0000000  0  9G15G21G13G24G10G32G04G20G27
 109599777.996 8  85402423.79447                  20856137.634    20856137.420
                  20856131.813                          53.000          46.0004

 110769339.424 8  86313769.20347                  21078700.746    21078699.796
                  21078694.258                          50.000          46.0004

 123252605.364 7  96040987.05644                  23454185.521    23454185.839
                  23454180.239                          44.000          29.0004

 112599712.608 8  87740041.42547                  21427006.211    21427006.405
                  21427003.563                          48.000          43.0004

 121275351.499 7  94500271.01046                  23077925.564    23077925.322
                  23077922.894                          47.000          38.0004

 132002671.281 6 102859223.52643                  25119270.934    25119271.313
                  25119270.760                          39.000          22.0004

 127222924.941 6  99134738.16244                  24209718.620    24209717.802
                  24209714.526                          41.000          26.0004

 109760503.340 8  85527670.14347                  20886722.183    20886721.373
                  20886716.067                          51.000          45.0004

 127251539.129 6  99157050.25244                  24215162.337    24215161.441
                  24215159.025                          40.000          29.0004

 19  9 29 20  4  0.0000000  0  9G15G21G13G24G10G32G04G20G27
 109660397.560 9  85449659.81647                  20867673.152    20867672.913
                  20867667.283                          54.000          46.0004

 110766742.662 8  86311745.75347                  21078206.543    21078205.617
                  21078199.924                          51.000          46.0004

 123351404.063 7  96117973.03344                  23472986.417    23472986.013
                  23472981.060                          42.000          29.0004

 112531871.375 8  87687178.15447                  21414096.540    21414096.614
                  21414093.695                          48.000          43.0004

 121196072.606 7  94438495.28546                  23062839.221    23062839.117
                  23062836.818                          47.000          38.0004

 131904715.414 6 102782894.39844                  25100630.896    25100630.976
                  25100629.928                          41.000          25.0004

 127252328.265 6  99157649.81944                  24215314.399    24215312.943
                  24215309.934                          39.000          25.0004

 109704957.550 8  85484387.72347                  20876152.378    20876151.212
                  20876146.005                          49.000          44.0004

 127243361.258 6  99150677.90644                  24213605.655    24213604.543
                  24213603.177                          40.000          29.0004

 19  9 29 20  4 30.0000000  0  9G15G21G13G24G10G32G04G20G27
 109721351.028 9  85497156.02747                  20879272.163    20879272.068
                  20879266.328                          54.000          46.0004

 110764627.027 8  86310097.20947                  21077804.155    21077802.963
                  21077797.294                          50.000          46.0004

 123450321.087 7  96195051.20944                  23491810.314    23491809.292
                  23491805.013                          42.000          29.0004

 112464522.044 8  87634698.17947                  21401280.653    21401280.514
                  21401277.635                          50.000          43.0004

 121116868.314 8  94376777.67946                  23047767.179    23047767.037
                  23047764.660                          48.000          38.0004

 131806870.218 6 102706651.46043                  25082011.719    25082012.023
                  25082010.074                          40.000          23.0004

 127282227.961 6  99180948.26744                  24221004.086    24221002.761
                  24220999.917                          38.000          25.0004

 109649655.998 8  85441295.61747                  20865628.942    20865627.618
                  20865622.500                          51.000          45.0004

 127235748.706 6  99144746.05844                  24212156.817    24212156.304
                  24212154.588                          41.000          29.0004

 19  9 29 20  5  0.0000000  0  9G15G21G13G24G10G32G04G20G27
 109782634.592 8  85544909.45447                  20890933.847    20890933.898
                  20890928.255                          53.000          46.0004

 110762992.095 8  86308823.23547                  21077493.048    21077492.019
                  21077486.426                          50.000          46.0004

 123549353.022 7  96272218.92544                  23510655.044    23510654.726
                  23510649.697                          43.000          29.0004

 112397665.131 8  87582601.90947                  21388558.121    21388558.135
                  21388555.293                          50.000          44.0004

 121037738.165 8  94315117.85246                  23032709.268    23032709.281
                  23032706.592                          48.000          39.0004

 131709135.852 6 102630494.95044                  25063413.816    25063413.692
                  25063412.010                          39.000          26.0004

 127312621.220 6  99204631.32044                  24226787.285    24226786.679
                  24226783.718                          40.000          26.0004

 109594598.703 8  85398393.84447                  20855151.667    20855150.567
                  20855145.367                          50.000          44.0004

 127228700.038 6  99139253.59644                  24210816.435    24210815.158
                  24210813.081                          40.000          29.0004

 19  9 29 20  5 30.0000000  0  9G15G21G13G24G10G32G04G20G27
 109844244.896 8  85592917.48347                  20902658.146    20902657.797
                  20902652.395                          53.000          46.0004

 110761836.297 8  86307922.61047                  21077273.199    21077272.155
                  21077266.384                          49.000          46.0004

 123648496.681 7  96349473.70544                  23529521.429    23529521.525
                  23529516.340                          43.000          29.0004

 112331302.171 7  87530890.53747                  21375929.179    21375929.473
                  21375926.740                          47.000          43.0004

 120958681.361 7  94253515.17946                  23017665.194    23017665.064
                  23017662.727                          46.000          38.0004

 131611511.705 6 102554424.26243                  25044836.746    25044836.793
                  25044834.312                          41.000          23.0004

 127343504.853 6  99228696.46944                  24232664.376    24232663.625
                  24232660.002                          40.000          25.0004

 109539785.905 8  85355682.58147                  20844721.411    20844720.270
                  20844715.068                          50.000          44.0004

 127222213.483 6  99134199.16444                  24209581.515    24209581.047
                  24209578.658                          41.000          29.0004

 19  9 29 20  6  0.0000000  0  9G15G21G13G24G10G32G04G20G27
 109906178.740 9  85641177.61847                  20914443.668    20914443.440
                  20914437.934                          54.000          46.0004

 110761159.470 8  86307395.21347                  21077144.390    21077143.182
                  21077137.548                          51.000          45.0004

 123747748.820 7  96426813.00944                  23548408.715    23548408.682
                  23548403.422                          42.000          29.0004

 112265433.849 7  87479564.59847                  21363395.119    21363395.027
                  21363392.336                          47.000          43.0004

 120879697.442 7  94191969.29946                  23002634.751    23002634.477
                  23002632.303                          46.000          38.0004

 131513997.550 6 102478439.31244                  25026280.064    25026279.913
                  25026278.389                          39.000          24.0004

 127374875.925 6  99253141.45644                  24238634.264    24238633.191
                  24238629.397                          41.000          24.0004

 109485217.188 8  85313161.51047                  20834337.335    20834336.313
                  20834330.970                          51.000          45.0004

 127216287.590 6  99129581.59744                  24208453.453    24208452.726
                  24208451.062                          41.000          28.0004

 19  9 29 20  6 30.0000000  0  9G15G21G13G24G10G32G04G20G27
 109968438.194 8  85689691.46747                  20926291.304    20926291.146
                  20926285.558                          53.000          46.0004

 110760966.022 8  86307244.47747                  21077107.647    21077106.524
                  21077100.744                          51.000          45.0004

 123847110.984 7  96504238.05144                  23567316.479    23567316.713
                  23567311.533                          44.000          28.0004

 112200066.641 8  87428629.14247                  21350956.276    21350955.762
                  21350953.240                          49.000          43.0004

 120800790.904 7  94130483.71746                  22987619.489    22987619.382
                  22987616.892                          46.000          38.0004

 131416598.169 6 102402543.78544                  25007745.282    25007745.340
                  25007743.598                          39.000          24.0004

 127406735.873 6  99277967.38744                  24244696.694    24244695.879
                  24244692.992                          41.000          25.0004

 109430897.852 8  85270834.75747                  20824000.558    20823999.490
                  20823994.191                          50.000          44.0004

 127210925.748 6  99125403.53944                  24207433.311    24207432.263
                  24207430.875                          40.000          28.0004

 19  9 29 20  7  0.0000000  0  9G15G21G13G24G10G32G04G20G27
 110031018.146 9  85738455.07147                  20938199.827    20938199.677
                  20938194.110                          54.000          46.0004

 110761253.742 8  86307468.67647                  21077162.142    21077161.361
                  21077155.535                          50.000          46.0004

 123946578.485 7  96581745.16444                  23586244.313    23586245.049
                  23586238.970                          44.000          28.0004

 112135200.453 7  87378084.09047                  21338612.244    21338611.944
                  21338609.629                          47.000          43.0004

 120721959.980 8  94069057.05746                  22972618.375    22972618.253
                  22972615.526                          48.000          38.0004

 131319312.052 6 102326736.52844                  24989231.869    24989231.543
                  24989230.599                          39.000          25.0004

 127439080.710 7  99303171.15744                  24250851.993    24250851.623
                  24250848.228                          42.000          26.0004

 109376826.587 8  85228701.31547                  20813711.382    20813710.013
                  20813704.936                          49.000          44.0004

 127206125.128 6  99121662.80744                  24206519.556    24206519.215
                  24206517.477                          40.000          28.0004

 19  9 29 20  7 30.0000000  0  9G15G21G13G24G10G32G04G20G27
 110093915.242 8  85787465.80147                  20950168.899    20950168.500
                  20950163.209                          53.000          46.0004

 110762021.277 8  86308066.75047                  21077308.378    21077307.453
                  21077301.625                          51.000          46.0004

 124046147.630 7  96659331.48644                  23605191.969    23605191.790
                  23605187.467                          42.000          29.0004

 112070836.432 8  87327930.33847                  21326364.404    21326364.104
                  21326361.506                          48.000          43.0004

 120643203.893 7  94007688.70346                  22957631.507    22957631.530
                  22957629.093                          46.000          38.0004

 131222138.601 6 102251017.07844                  24970740.599    24970740.303
                  24970738.696                          40.000          25.0004

 127471906.695 6  99328749.84144                  24257098.600    24257098.119
                  24257094.713                          41.000          27.0004

 109323003.078 8  85186760.92347                  20803468.654    20803467.796
                  20803462.735                          51.000          45.0004

 127201883.818 6  99118357.89744                  24205712.170    24205711.601
                  24205710.248                          39.000          28.0004

 19  9 29 20  8  0.0000000  0  9G15G21G13G24G10G32G04G20G27
 110157125.489 9  85836720.53347                  20962197.309    20962196.888
                  20962191.644                          54.000          46.0004

 110763267.490 8  86309037.81947                  21077545.394    21077544.784
                  21077538.660                          51.000          46.0004

 124145814.737 7  96736994.14244                  23624157.849    23624158.200
                  23624153.011                          42.000          28.0004

 112006975.104 8  87278168.29447                  21314211.770    21314211.659
                  21314209.163                          49.000          43.0004

 120564521.683 8  93946377.91746                  22942658.764    22942658.951
                  22942656.216                          48.000          38.0004

 131125077.089 6 102175384.83044                  24952270.123    24952270.135
                  24952268.259                          40.000          25.0004

 127505209.861 6  99354700.35244                  24263435.670    24263435.194
                  24263432.305                          39.000          27.0004

 109269426.785 8  85145013.17747                  20793273.672    20793272.633
                  20793267.592                          51.000          45.0004

 127198199.720 6  99115487.16544                  24205011.720    24205009.943
                  24205009.115                          38.000          27.0004

 19  9 29 20  8 30.0000000  0  9G15G21G13G24G10G32G04G20G27
 110220647.930 8  85886218.53347                  20974285.174    20974284.747
                  20974279.606                          52.000          46.0004

 110764994.110 8  86310383.24047                  21077873.992    21077873.052
                  21077867.244                          50.000          46.0004

 124245578.951 7  96814732.47744                  23643142.649    23643142.177
                  23643137.931                          42.000          28.0004

 111943619.607 7  87228800.39947                  21302155.554    21302155.839
                  21302152.820                          47.000          43.0004

 120485915.099 8  93885126.05346                  22927700.782    22927700.868
                  22927698.072                          48.000          39.0004

 131028129.518 6 102099841.39544                  24933822.057    24933821.552
                  24933820.249                          39.000          26.0004

 127538989.820 6  99381022.37944                  24269864.476    24269863.211
                  24269859.702                          40.000          26.0004

 109216100.233 8  85103460.03147                  20783125.987    20783124.973
                  20783119.834                          52.000          46.0004

 127195073.443 6  99113051.08344                  24204416.854    24204415.662
                  24204414.347                          39.000          28.0004

 19  9 29 20  9  0.0000000  0  9G15G21G13G24G10G32G04G20G27
 110284482.204 8  85935959.51947                  20986432.432    20986432.168
                  20986426.885                          53.000          46.0004

 110767203.053 8  86312104.49447                  21078294.288    21078293.241
                  21078287.685                          52.000          46.0004

 124345439.529 7  96892545.88044                  23662145.671    23662145.476
                  23662139.154                          43.000          28.0004

 111880773.951 8  87179829.78047                  21290196.654    21290196.864
                  21290193.712                          51.000          44.0004

 120407386.584 8  93823935.03646                  22912757.222    22912757.298
                  22912754.488                          48.000          39.0004

 130931298.496 6 102024388.75144                  24915395.342    24915395.187
                  24915394.525                          40.000          26.0004

 127573246.058 6  99407715.53944                  24276382.985    24276382.219
                  24276378.330                          40.000          26.0004

 109163026.435 8  85062103.82547                  20773026.269    20773025.351
                  20773020.128                          51.000          45.0004

 127192506.118 6  99111050.57544                  24203928.308    24203927.547
                  24203925.831                          41.000          28.0004

 19  9 29 20  9 30.0000000  0  9G15G21G13G24G10G32G04G20G27
 110348625.049 9  85985940.95447                  20998638.430    20998638.261
                  20998632.820                          54.000          46.0004

 110769893.844 8  86314201.21147                  21078806.486    21078805.468
                  21078799.714                          51.000          46.0004

 124445393.604 7  96970432.13744                  23681166.204    23681165.660
                  23681161.085                          42.000          28.0004

 111818439.497 8  87131257.49747                  21278334.692    21278334.918
                  21278331.956                          50.000          44.0004

 120328935.913 8  93762804.65046                  22897828.420    22897828.556
                  22897825.661                          48.000          39.0004

 130834583.992 6 101949026.89144                  24896991.086    24896990.377
                  24896990.150                          41.000          26.0004

 127607975.441 6  99434777.39144                  24282991.166    24282990.521
                  24282987.586                          40.000          26.0004

 109110205.719 8  85020944.83547                  20762974.905    20762973.782
                  20762968.599                          52.000          45.0004

 127190496.388 6  99109484.55644                  24203545.674    24203545.298
                  24203542.951                          41.000          28.0004

 19  9 29 20 10  0.0000000  0  9G15G21G13G24G10G32G04G20G27
 110413074.071 9  86036160.96847                  21010902.733    21010902.500
                  21010896.885                          54.000          46.0004

 110773066.067 8  86316673.07147                  21079410.014    21079409.090
                  21079403.401                          50.000          46.0004

 124545438.560 6  97048389.23644                  23700204.234    23700203.452
                  23700199.021                          41.000          28.0004

 111756618.125 8  87083085.02047                  21266570.417    21266570.575
                  21266567.744                          50.000          44.0004

 120250563.032 8  93701734.89446                  22882914.515    22882914.553
                  22882911.601                          48.000          38.0004

 130737986.136 6 101873755.91744                  24878608.706    24878608.396
                  24878607.754                          40.000          26.0004

 127643175.480 6  99462205.96144                  24289690.118    24289689.438
                  24289686.250                          40.000          27.0004

 109057638.455 8  84979983.33547                  20752971.629    20752970.573
                  20752965.338                          50.000          45.0004

 127189042.912 6  99108351.97944                  24203269.642    24203268.795
                  24203266.442                          39.000          28.0004

 19  9 29 20 10 30.0000000  0  9G15G21G13G24G10G32G04G20G27
 110477827.875 8  86086618.47547                  21023224.908    21023224.851
                  21023219.130                          53.000          46.0004

 110776721.063 8  86319521.11447                  21080105.656    21080104.455
                  21080098.937                          50.000          46.0004

 124645573.226 7  97126416.23044                  23719258.911    23719258.749
                  23719254.249                          43.000          28.0004

 111695312.348 8  87035314.30447                  21254904.520    21254904.350
                  21254901.690                          51.000          44.0004

 120172269.752 7  93640727.16146                  22868015.881    22868015.823
                  22868012.903                          47.000          38.0004

 130641506.824 6 101798577.30644                  24860249.560    24860249.331
                  24860248.343                          41.000          27.0004

 127678844.747 6  99490000.17244                  24296477.475    24296476.467
                  24296473.917                          39.000          27.0004

 109005326.618 8  84939220.87347                  20743017.048    20743015.969
                  20743010.708                          51.000          45.0004

 127188146.059 6  99107653.14744                  24203098.150    24203098.235
                  24203095.178                          41.000          28.0004

 19  9 29 20 11  0.0000000  0  9G15G21G13G24G10G32G04G20G27
 110542883.193 9  86137310.92647                  21035604.640    21035604.344
                  21035598.765                          54.000          46.0004

 110780858.348 8  86322744.96647                  21080893.053    21080891.868
                  21080886.092                          51.000          46.0004

 124745794.299 7  97204510.54644                  23738330.296    23738330.176
                  23738325.647                          42.000          28.0004

 111634524.372 8  86987947.07747                  21243336.935    21243336.585
                  21243334.156                          48.000          44.0004

 120094055.813 8  93579781.25446                  22853132.287    22853132.055
                  22853129.473                          48.000          38.0004

 130545146.000 7 101723491.05944                  24841912.792    24841912.996
                  24841911.858                          42.000          29.0004

 127714980.078 6  99518157.54544                  24303354.112    24303353.205
                  24303349.643                          41.000          27.0004

 108953270.827 8  84898657.93647                  20733111.136    20733110.019
                  20733104.860                          50.000          45.0004

 127187804.408 6  99107386.93444                  24203033.863    24203032.623
                  24203030.790                          39.000          28.0004

 19  9 29 20 11 30.0000000  0  9G15G21G13G24G10G32G04G20G27
 110608239.715 9  86188238.08447                  21048041.394    21048041.367
                  21048035.755                          54.000          46.0004

 110785479.447 8  86326345.82247                  21081772.556    21081771.378
                  21081765.423                          50.000          46.0004

 124846101.669 7  97282672.09644                  23757417.955    23757418.211
                  23757411.824                          42.000          27.0004

 111574257.059 8  86940985.56347                  21231868.651    21231868.111
                  21231865.539                          49.000          44.0004

 120015923.505 8  93518898.95946                  22838264.331    22838263.905
                  22838261.089                          48.000          39.0004

 130448906.092 7 101648499.01744                  24823598.958    24823599.117
                  24823597.268                          42.000          28.0004

 127751581.091 6  99546677.80244                  24310318.760    24310318.706
                  24310314.478                          41.000          27.0004

 108901473.897 8  84858296.70147                  20723254.552    20723253.462
                  20723248.213                          52.000          45.0004

 127188018.803 6  99107553.99544                  24203073.908    24203073.578
                  24203071.859                          38.000          28.0004

 19  9 29 20 12  0.0000000  0  9G15G21G13G24G10G32G04G20G27
 110673897.152 8  86239399.71747                  21060535.437    21060535.701
                  21060529.908                          53.000          45.0004

 110790587.009 8  86330325.74147                  21082744.174    21082743.310
                  21082737.356                          50.000          46.0004

 124946495.174 6  97360900.77544                  23776522.379    23776522.003
                  23776518.454                          41.000          27.0004

 111514515.411 8  86894433.65047                  21220499.774    21220499.756
                  21220496.942                          49.000          45.0004

 119937875.697 7  93458082.50546                  22823412.350    22823411.977
                  22823409.183                          47.000          39.0004

 130352790.155 6 101573603.57644                  24805308.248    24805308.338
                  24805306.951                          40.000          27.0004

 127788647.913 6  99575561.01944                  24317372.335    24317371.778
                  24317368.775                          41.000          28.0004

 108849939.217 8  84818139.81947                  20713447.894    20713446.728
                  20713441.328                          51.000          45.0004

 127188790.653 6  99108155.45144                  24203221.062    24203220.750
                  24203218.624                          41.000          28.0004

 19  9 29 20 12 30.0000000  0  9G15G21G13G24G10G32G04G20G27
 110739850.172 9  86290791.67047                  21073086.093    21073086.001
                  21073080.496                          54.000          46.0004

 110796177.523 8  86334681.98447                  21083807.809    21083807.077
                  21083801.357                          51.000          46.0004

 125046969.210 7  97439192.22844                  23795641.832    23795642.550
                  23795636.784                          43.000          27.0004

 111455297.485 8  86848289.83347                  21209231.108    21209231.098
                  21209228.068                          48.000          44.0004

 119859909.676 8  93397329.78646                  22808575.746    22808575.451
                  22808572.636                          48.000          39.0004

 130256795.525 6 101498802.64044                  24787040.228    24787040.636
                  24787039.267                          41.000          25.0004

 127826175.034 6  99604802.89644                  24324513.765    24324512.569
                  24324509.663                          38.000          27.0004

 108798664.582 8  84778185.56447                  20703690.676    20703689.421
                  20703684.092                          50.000          45.0004

 127190115.852 6  99109188.09344                  24203473.021    24203473.093
                  24203470.806                          39.000          28.0004

 19  9 29 20 13  0.0000000  0  9G15G21G13G24G10G32G04G20G27
 110806100.356 9  86342415.18147                  21085692.943    21085692.908
                  21085687.615                          54.000          46.0004

 110802255.007 8  86339417.68347                  21084964.427    21084963.415
                  21084957.943                          51.000          45.0004

 125147525.404 7  97517547.66044                  23814777.735    23814777.432
                  23814773.079                          43.000          28.0004

 111396609.461 8  86802558.91947                  21198063.063    21198063.390
                  21198060.124                          51.000          45.0004

 119782029.635 8  93336644.06346                  22793755.335    22793755.212
                  22793752.596                          48.000          39.0004

 130160926.577 6 101424099.63144                  24768797.808    24768797.250
                  24768796.005                          40.000          26.0004

 127864162.966 6  99634403.86344                  24331742.815    24331741.695
                  24331738.784                          40.000          27.0004

 108747654.384 8  84738437.36947                  20693983.860    20693982.536
                  20693977.280                          51.000          45.0004

 127191997.200 6  99110654.07944                  24203831.663    24203830.072
                  24203829.033                          38.000          28.0004

 19  9 29 20 13 30.0000000  0  9G15G21G13G24G10G32G04G20G27
 110872641.855 8  86394265.69147                  21098355.603    21098355.370
                  21098349.994                          53.000          45.0004

 110808816.280 8  86344530.35647                  21086212.985    21086212.069
                  21086206.482                          50.000          46.0004

 125248158.521 6  97595963.04544                  23833927.549    23833926.517
                  23833921.151                          41.000          26.0004

 111338450.008 8  86757239.88247                  21186995.677    21186995.994
                  21186992.809                          50.000          45.0004

 119704233.172 7  93276023.46546                  22778951.406    22778951.178
                  22778948.333                          47.000          39.0004

 130065180.882 6 101349492.69644                  24750577.730    24750577.749
                  24750576.394                          41.000          26.0004

 127902607.015 6  99664360.24544                  24339058.621    24339057.431
                  24339054.417                          41.000          27.0004

 108696906.921 8  84698893.89947                  20684326.600    20684325.605
                  20684320.328                          49.000          45.0004

 127194430.708 6  99112550.29644                  24204293.761    24204293.466
                  24204292.074                          39.000          28.0004

 19  9 29 20 14  0.0000000  0  9G15G21G13G24G10G32G04G20G27
 110939471.849 8  86446341.00547                  21111073.119    21111072.535
                  21111067.232                          53.000          45.0004

 110815861.102 8  86350019.83347                  21087553.597    21087552.762
                  21087547.174                          52.000          46.0004

 125348865.805 6  97674436.24244                  23853091.008    23853091.001
                  23853086.796                          41.000          28.0004

 111280820.489 8  86712333.78147                  21176029.187    21176029.478
                  21176026.176                          50.000          44.0004

 119626520.295 8  93215467.99546                  22764163.079    22764162.928
                  22764160.131                          48.000          40.0004

 129969558.608 6 101274981.93344                  24732381.750    24732381.851
                  24732379.698                          40.000          27.0004

 127941503.897 7  99694669.48644                  24346460.076    24346459.454
                  24346455.761                          42.000          27.0004

 108646422.753 8  84659555.59847                  20674719.611    20674718.784
                  20674713.492                          51.000          45.0004

 127197414.942 6  99114875.67244                  24204862.730    24204861.952
                  24204859.740                          40.000          28.0004

 19  9 29 20 14 30.0000000  0  9G15G21G13G24G10G32G04G20G27
 111006588.414 8  86498639.62447                  21123844.750    21123844.371
                  21123839.102                          52.000          45.0004

 110823389.057 8  86355885.76647                  21088986.254    21088985.026
                  21088979.729                          49.000          46.0004

 125449644.741 7  97752965.25244                  23872268.778    23872269.021
                  23872264.083                          44.000          27.0004

 111223722.320 8  86667841.72047                  21165163.681    21165163.617
                  21165160.708                          49.000          44.0004

 119548891.513 8  93154978.05846                  22749390.809    22749390.979
                  22749387.905                          48.000          40.0004

 129874060.328 6 101200567.77044                  24714208.947    24714208.895
                  24714206.913                          39.000          27.0004

 127980851.129 6  99725329.66244                  24353947.410    24353946.717
                  24353943.105                          40.000          26.0004

 108596203.093 8  84620423.40047                  20665163.325    20665162.253
                  20665156.843                          49.000          45.0004

 127200948.720 6  99117629.28244                  24205534.538    24205534.792
                  24205532.158                          41.000          28.0004

 19  9 29 20 15  0.0000000  0  9G15G21G13G24G10G32G04G20G27
 111073992.270 9  86551162.10347                  21136671.211    21136670.880
                  21136665.426                          54.000          45.0004

 110831403.669 8  86362130.91647                  21090511.361    21090510.322
                  21090504.794                          52.000          46.0004

 125550496.622 7  97831551.10144                  23891460.578    23891459.949
                  23891454.331                          43.000          26.0004

 111167160.967 8  86623767.96147                  21154400.188    21154400.165
                  21154397.549                          50.000          44.0004

 119471350.818 8  93094556.75346                  22734635.242    22734635.427
                  22734632.515                          50.000          40.0004

 129778690.114 6 101126253.40244                  24696060.568    24696060.361
                  24696058.537                          40.000          27.0004

 128020649.367 6  99756341.26244                  24361521.479    24361520.293
                  24361516.806                          41.000          27.0004

 108546251.889 8  84581500.39147                  20655658.018    20655656.780
                  20655651.457                          52.000          45.0004

 127205034.522 6  99120813.02744                  24206311.832    24206311.522
                  24206309.297                          38.000          27.0004

 19  9 29 20 15 30.0000000  0  9G15G21G13G24G10G32G04G20G27
 111141683.210 8  86603908.27647                  21149552.330    21149552.164
                  21149546.489                          53.000          46.0004

 110839906.660 8  86368756.61947                  21092129.422    21092128.471
                  21092122.734                          50.000          46.0004

 125651421.483 6  97910193.83444                  23910665.547    23910665.272
                  23910661.618                          41.000          27.0004

 111111140.791 8  86580115.90447                  21143739.920    21143739.517
                  21143737.103                          49.000          44.0004

 119393900.775 8  93034206.08946                  22719897.131    22719896.968
                  22719894.128                          48.000          41.0004

 129683450.540 6 101052040.81044                  24677936.553    24677937.119
                  24677935.229                          40.000          27.0004

 128060898.430 7  99787704.15544                  24369180.181    24369179.606
                  24369176.172                          42.000          27.0004

 108496572.455 8  84542789.15247                  20646204.055    20646203.044
                  20646197.797                          51.000          45.0004

 127209673.356 6  99124427.69044                  24207194.606    24207194.139
                  24207192.294                          40.000          28.0004

 19  9 29 20 16  0.0000000  0  9G15G21G13G24G10G32G04G20G27
 111209657.944 9  86656875.59147                  21162487.477    21162487.436
                  21162481.722                          54.000          46.0004

 110848896.977 8  86375762.05547                  21093840.087    21093839.149
                  21093833.704                          50.000          46.0004

 125752415.814 7  97988890.72244                  23929884.235    23929885.750
                  23929878.635                          43.000          26.0004

 111055661.899 8  86536885.62747                  21133182.762    21133182.394
                  21133179.853                          50.000          44.0004

 119316540.936 8  92973925.71846                  22705176.044    22705175.787
                  22705173.227                          48.000          40.0004

 129588341.219 7 100977929.73344                  24659838.229    24659838.161
                  24659836.206                          42.000          27.0004

 128101594.900 6  99819415.68044                  24376924.518    24376923.587
                  24376920.846                          40.000          27.0004

 108447164.774 8  84504289.67047                  20636802.198    20636801.071
                  20636795.913                          50.000          45.0004

 127214863.021 6  99128471.57344                  24208182.809    24208182.042
                  24208179.750                          38.000          28.0004

 19  9 29 20 16 30.0000000  0  9G15G21G13G24G10G32G04G20G27
 111277911.673 8  86710060.30547                  21175475.716    21175475.654
                  21175470.173                          53.000          45.0004

 110858372.102 8  86383145.26747                  21095643.400    21095642.190
                  21095636.678                          49.000          46.0004

 125853474.868 7  98067637.98144                  23949115.167    23949115.669
                  23949111.579                          43.000          26.0004

 111000723.861 8  86494076.79147                  21122728.298    21122728.240
                  21122725.560                          49.000          44.0004

 119239269.243 7  92913714.03946                  22690471.543    22690471.281
                  22690468.859                          47.000          40.0004

 129493360.087 6 100903918.54344                  24641764.105    24641763.745
                  24641761.336                          41.000          28.0004

 128142733.380 6  99851471.62944                  24384753.125    24384752.152
                  24384748.409                          41.000          26.0004

 108398027.128 8  84466000.60847                  20627451.440    20627450.741
                  20627445.407                          50.000          46.0004

 127220599.850 7  99132941.84244                  24209274.386    24209274.242
                  24209271.275                          42.000          28.0004

 19  9 29 20 17  0.0000000  0  9G15G21G13G24G10G32G04G20G27
 111346448.731 8  86763465.79447                  21188517.948    21188517.868
                  21188512.432                          53.000          46.0004

 110868338.645 8  86390911.40347                  21097539.969    21097538.748
                  21097533.155                          49.000          45.0004

 125954603.383 6  98146439.42344                  23968358.788    23968359.209
                  23968353.816                          40.000          25.0004

 110946335.197 8  86451696.04247                  21112378.478    21112378.454
                  21112375.669                          50.000          44.0004

 119162093.315 7  92853576.98146                  22675785.653    22675784.909
                  22675782.728                          47.000          40.0004

 129398514.803 7 100830013.22544                  24623715.114    24623715.288
                  24623713.003                          43.000          28.0004

 128184318.379 6  99883875.52244                  24392666.379    24392665.533
                  24392662.011                          41.000          27.0004

 108349167.936 8  84427928.51547                  20618153.893    20618152.988
                  20618147.816                          51.000          46.0004

 127226889.719 6  99137843.05444                  24210471.073    24210470.655
                  24210468.383                          41.000          28.0004

 19  9 29 20 17 30.0000000  0  9G15G21G13G24G10G32G04G20G27
 111415264.929 8  86817088.79147                  21201613.311    21201613.107
                  21201607.655                          53.000          46.0004

 110878794.517 8  86399058.83347                  21099529.785    21099528.409
                  21099522.651                          50.000          46.0004

 126055797.320 7  98225291.81144                  23987616.061    23987617.183
                  23987612.380                          43.000          28.0004

 110892495.645 8  86409743.16347                  21102133.313    21102133.271
                  21102130.219                          50.000          45.0004

 119085011.593 7  92793513.34046                  22661116.967    22661116.490
                  22661114.528                          47.000          40.0004

 129303803.801 6 100756212.53944                  24605692.368    24605692.278
                  24605690.505                          41.000          28.0004

 128226345.501 6  99916623.92144                  24400663.845    24400662.889
                  24400659.714                          41.000          27.0004

 108300585.838 8  84390072.35147                  20608909.020    20608907.910
                  20608902.853                          50.000          45.0004

 127233729.379 6  99143172.67544                  24211773.255    24211772.022
                  24211770.321                          41.000          29.0004

 19  9 29 20 18  0.0000000  0  9G15G21G13G24G10G32G04G20G27
 111484355.428 8  86870925.53647                  21214760.844    21214760.525
                  21214754.978                          53.000          45.0004

 110889737.230 8  86407585.62047                  21101611.867    21101611.047
                  21101605.119                          49.000          46.0004

 126157052.006 7  98304191.51544                  24006884.851    24006884.897
                  24006878.998                          45.000          25.0004

 110839204.483 8  86368217.60147                  21091992.230    21091992.232
                  21091989.392                          50.000          44.0004

 119008022.449 8  92733521.82946                  22646466.320    22646466.356
                  22646463.856                          48.000          40.0004

 129209225.423 6 100682515.20144                  24587694.549    24587694.126
                  24587692.792                          41.000          28.0004

 128268809.128 6  99949712.46844                  24408744.582    24408743.835
                  24408740.458                          41.000          27.0004

 108252279.714 8  84352431.22647                  20599716.557    20599715.597
                  20599710.469                          50.000          45.0004

 127241115.346 6  99148927.96444                  24213177.879    24213177.400
                  24213176.057                          38.000          29.0004

 19  9 29 20 18 30.0000000  0  9G15G21G13G24G10G32G04G20G27
 111553720.165 8  86924975.97647                  21227960.312    21227960.226
                  21227954.759                          53.000          46.0004

 110901168.893 8  86416493.40347                  21103787.059    21103786.269
                  21103780.500                          48.000          46.0004

 126258367.546 6  98383138.70044                  24026163.574    24026162.940
                  24026159.866                          39.000          27.0004

 110786466.214 8  86327122.86347                  21081956.498    21081956.650
                  21081953.547                          50.000          44.0004

 118931128.751 8  92673604.69346                  22631834.073    22631834.135
                  22631831.392                          48.000          40.0004

 129114782.495 7 100608923.37144                  24569722.627    24569721.954
                  24569720.793                          42.000          27.0004

 128311709.720 6  99983141.47944                  24416908.354    24416907.551
                  24416904.051                          41.000          27.0004

 108204252.970 8  84315007.79647                  20590577.513    20590576.427
                  20590571.363                          51.000          45.0004

 127249048.716 6  99155109.82144                  24214687.540    24214687.976
                  24214685.468                          41.000          29.0004

 19  9 29 20 19  0.0000000  0  9G15G21G13G24G10G32G04G20G27
 111623357.652 8  86979238.94847                  21241212.240    21241211.689
                  21241206.274                          53.000          45.0004

 110913089.835 8  86425782.44447                  21106055.558    21106054.634
                  21106049.142                          49.000          46.0004

 126359742.546 7  98462132.17744                  24045455.776    24045456.597
                  24045450.128                          43.000          27.0004

