     2.11           OBSERVATION DATA    G (GPS)             RINEX VERSION / TYPE
teqc  2018Jun8      root                20191128 20:47:16UTCPGM / RUN BY / DATE
Linux 2.4.21-27.ELsmp|Opteron|gcc|Linux 64|=+               COMMENT
teqc  2019Feb25     CORS-ADM Account    20191031 19:44:31UTCCOMMENT
teqc  2019Feb25     NOAA/NOS/NGS/CORS   20190930 03:27:13UTCCOMMENT
Spider V7.2.2.7822                      2019 09 29 02:09    COMMENT
BIT 2 OF LLI FLAGS DATA COLLECTED UNDER A/S CONDITION       COMMENT
SNR is mapped to RINEX snr flag value [1-9]                 COMMENT
Lx:    >= 25dBHz -> 1; 26-27dBHz -> 2; 28-31dBHz -> 3       COMMENT
       32-35dBHz -> 4; 36-38dBHz -> 5; 39-41dBHz -> 6       COMMENT
       42-44dBHz -> 7; 45-48dBHz -> 8; >= 49dBHz -> 9       COMMENT
US2010                                                      COMMENT
teqc.e edited: all SBAS satellites excluded                 COMMENT
teqc.e edited: all QZSS satellites excluded                 COMMENT
Forced Modulo Decimation to 30 seconds                      COMMENT
NJTR                                                        MARKER NAME
SmartNet  NA        SMRTNT                                  OBSERVER / AGENCY
355965              LEICA GRX1200GGPRO  4.30/6.525          REC # / TYPE / VERS
15072033            LEIAR10         NONE                    ANT # / TYPE
  1278261.2780 -4703708.0040  4099884.5550                  APPROX POSITION XYZ
        0.0000        0.0000        0.0000                  ANTENNA: DELTA H/E/N
     1     1                                                WAVELENGTH FACT L1/2
     7    C1    L1    S1    P2    L2    S2    C2            # / TYPES OF OBSERV
    30.0000                                                 INTERVAL
teqc.w windowed: start @ 2019 Sep 29 20:00:00.000           COMMENT
teqc.w windowed:  end  @ 2019 Sep 30 08:00:00.000           COMMENT
teqc.w edited: all GLONASS satellites excluded              COMMENT
teqc.w edited: all SBAS satellites excluded                 COMMENT
teqc.w edited: all Galileo satellites excluded              COMMENT
teqc.w edited: all Beidou satellites excluded               COMMENT
teqc.w edited: all QZSS satellites excluded                 COMMENT
  2019     9    29    20     0    0.0000000     GPS         TIME OF FIRST OBS
    18                                                      LEAP SECONDS
                                                            END OF HEADER
 19  9 29 20  0  0.0000000  0 10G05G10G13G15G20G21G24G27G29G32
  25172240.000   132280996.067 6        39.200    25172235.020   103076094.49944
        32.650    25172240.320
  23332125.820   122611163.132 8        46.000    23332124.460    95541184.52247
        43.050    23332124.860
  23217390.220   122008225.111 7        42.050    23217386.320    95071366.90344
        35.750
  20698884.040   108773424.750 9        50.000    20698879.720    84758516.50647
        44.100    20698880.480
  21047935.400   110607684.798 8        47.750    21047930.780    86187820.65247
        43.650
  21096708.940   110863982.132 8        48.800    21096704.340    86387490.56948
        45.900
  21338201.920   112133055.039 8        46.200    21338200.880    87376437.58547
        44.000    21338201.640
  24391983.900   128180747.514 6        41.750    24391983.120    99881090.11745
        36.750    24391983.920
  25306100.060   132984408.506 7        43.500    25306099.380   103624183.66244
        33.900    25306099.900
  25300672.780   132955935.956 6        40.900    25300673.180   103602012.52945
        38.000    25300673.920
 19  9 29 20  0 30.0000000  0 10G05G10G13G15G20G21G24G27G29G32
  25189074.780   132369440.132 8        45.350    25189068.540   103145011.76844
        33.050    25189071.460
  23316799.200   122530621.400 8        45.350    23316797.880    95478424.79747
        44.650    23316798.260
  23235873.560   122105355.561 6        41.850    23235869.720    95147052.91345
        36.150
  20709695.140   108830237.395 9        49.800    20709690.800    84802786.10047
        44.000    20709691.540
  21036499.160   110547587.193 8        47.750    21036494.560    86140991.36247
        44.600
  21095079.260   110855417.941 8        48.300    21095074.600    86380817.18148
        46.550
  21325014.280   112063753.513 8        46.250    21325013.220    87322436.42747
        44.400    21325013.980
  24389851.840   128169543.353 6        39.900    24389851.000    99872359.62645
        36.050    24389851.820
  25325299.860   133085303.371 6        41.150    25325299.240   103702802.83544
        35.750    25325299.760
  25282347.920   132859638.380 5        38.950    25282348.380   103526975.52245
        37.200    25282349.080
 19  9 29 20  1  0.0000000  0 10G05G10G13G15G20G21G24G27G29G32
  25205921.360   132457950.631 7        43.350    25205914.220   103213980.88044
        35.150    25205915.140
  23301483.400   122450136.514 8        45.350    23301482.120    95415709.36547
        42.800    23301482.480
  23254381.360   122202614.661 7        42.450    23254377.580    95222839.18245
        36.650
  20720571.080   108887391.022 9        49.750    20720566.740    84847321.39647
        44.600    20720567.500
  21025105.700   110487714.362 8        48.200    21025101.120    86094337.23247
        44.450
  21093541.700   110847338.084 8        48.250    21093537.040    86374521.19948
        46.400
  21311919.780   111994941.485 8        46.300    21311918.740    87268816.68147
        44.550    21311919.480
  24387826.800   128158901.756 6        40.000    24387825.940    99864067.46145
        36.900    24387826.800
  25344474.480   133186065.844 6        40.300    25344473.920   103781318.86345
        36.500    25344474.420
  25264043.700   132763449.449 6        40.900    25264044.220   103452023.18045
        37.300    25264044.900
 19  9 29 20  1 30.0000000  0  9G10G13G15G20G21G24G27G29G32
  23286180.020   122369716.718 8        45.250    23286178.800    95353044.62946
        41.550    23286179.160
  23272914.680   122300008.042 7        43.200    23272910.980    95298730.09545
        36.750
  20731512.980   108944891.231 9        49.800    20731508.660    84892126.74747
        44.900    20731509.440
  21013756.780   110428075.490 8        48.200    21013752.260    86047865.38347
        44.800
  21092097.880   110839750.770 8        48.000    21092093.200    86368609.00648
        46.250
  21298920.220   111926628.265 8        46.550    21298919.200    87215585.60747
        44.950    21298919.920
  24385910.240   128148830.242 7        42.200    24385909.300    99856219.53945
        36.800    24385910.200
  25363624.740   133286700.953 7        42.200    25363624.240   103859735.75344
        35.050    25363624.720
  25245761.740   132667377.503 6        40.700    25245762.320   103377162.02844
        33.800    25245762.980
 19  9 29 20  2  0.0000000  0 10G05G10G13G15G20G21G24G27G29G32
  25239639.560   132635185.368 7        43.750    25239635.560   103352093.50844
        35.600    25239638.340
  23270884.800   122289339.981 8        45.350    23270883.680    95290413.43046
        39.800    23270884.020
  23291468.860   122397510.965 7        43.650    23291465.220    95374706.38745
        37.000
  20742516.100   109002713.267 9        50.100    20742511.820    84937182.88148
        45.550    20742512.600
  21002448.240   110368648.845 8        48.200    21002443.760    86001558.92948
        45.600
  21090743.620   110832634.219 8        47.850    21090738.940    86363063.64648
        46.550
  21286011.780   111858793.997 8        46.400    21286010.780    87162727.76047
        44.900    21286011.460
  24384097.820   128139306.044 7        42.500    24384096.780    99848798.12444
        32.700    24384097.700
  25382746.160   133387183.584 6        41.600    25382745.780   103938033.61344
        32.850    25382746.240
  25227497.940   132571401.056 6        41.200    25227498.560   103302375.30744
        34.550    25227499.220
 19  9 29 20  2 30.0000000  0 10G05G10G13G15G20G21G24G27G29G32
  25256518.320   132723864.310 8        45.450    25256510.440   103421193.79044
        35.150    25256513.440
  23255596.900   122209001.700 8        45.800    23255595.780    95227812.13546
        39.150    23255596.120
  23310042.500   122495115.921 7        43.750    23310038.880    95450762.15946
        39.000
  20753579.120   109060849.837 9        50.250    20753574.860    84982484.09648
        45.550    20753575.660
  20991179.380   110309430.594 8        48.700    20991174.940    85955414.84848
        45.050
  21089478.040   110825983.672 8        48.000    21089473.360    86357881.39848
        47.150
  21273194.040   111791436.458 8        46.350    21273193.040    87110241.40947
        44.750    21273193.720
  24382388.540   128130323.636 6        41.350    24382387.380    99841798.85944
        34.800    24382388.340
  25401837.020   133487505.788 6        41.950    25401836.700   104016206.53543
        28.500    25401837.160
  25209251.480   132475515.669 6        41.700    25209252.100   103227659.51545
        36.350    25209252.780
 19  9 29 20  3  0.0000000  0 10G05G10G13G15G20G21G24G27G29G32
  25273408.360   132812607.691 6        41.550    25273398.800   103490344.32545
        36.000    25273401.180
  23240320.240   122128722.431 8        46.100    23240319.060    95165256.85446
        41.700    23240319.380
  23328638.880   122592840.408 7        43.600    23328635.260    95526911.08845
        36.750
  20764705.420   109119319.006 9        49.900    20764701.220    85028044.48448
        45.350    20764702.000
  20979954.260   110250442.111 8        48.350    20979949.820    85909449.80548
        45.000
  21088305.040   110819819.687 8        48.600    21088300.400    86353078.28848
        46.700
  21260471.040   111724576.923 8        46.700    21260470.060    87058143.10547
        44.200    21260470.740
  24380786.140   128121902.699 6        40.900    24380784.860    99835237.05944
        35.950    24380785.860
  25420900.620   133587684.938 7        43.550    25420900.300   104094268.01444
        35.150    25420900.780
  25191026.320   132379742.083 6        40.200    25191026.900   103153030.83944
        33.750    25191027.600
 19  9 29 20  3 30.0000000  0 10G05G10G13G15G20G21G24G27G29G32
  25290301.420                          37.150    25290305.040
        36.800    25290305.340
  23225057.780   122048517.804 8        46.150    23225056.580    95102759.77547
        42.900    23225056.900
  23347260.500   122690697.532 7        43.750    23347256.900    95603163.36745
        36.300
  20775897.460   109178133.503 9        49.350    20775893.260    85073873.94547
        44.900    20775894.040
  20968775.880   110191699.260 8        47.950    20968771.440    85863676.17947
        44.750
  21087227.640   110814158.048 8        48.350    21087223.020    86348666.61548
        47.250
  21247846.320   111658233.621 8        46.750    21247845.340    87006447.05047
        44.950    21247846.020
  24379293.320   128114057.887 6        40.200    24379291.960    99829124.21144
        32.700    24379292.960
  25439939.280   133687733.081 6        41.750    25439938.920   104172227.43041
        25.650    25439939.440
  25172825.480   132284096.120 6        40.500    25172825.960   103078501.58544
        34.750    25172826.700
 19  9 29 20  4  0.0000000  0 10G05G10G13G15G20G21G24G27G29G32
  25307212.720   132990284.553 7        43.150    25307211.740   103628807.85645
        36.200    25307212.960
  23209800.980   121968342.936 8        45.850    23209799.740    95040285.89447
        43.650    23209800.080
  23365898.340   122788639.929 7        43.550    23365894.740    95679482.09244
        34.600
  20787146.220   109237246.135 9        49.350    20787142.060    85119935.71847
        43.900    20787142.840
  20957635.860   110133158.080 8        48.000    20957631.420    85818059.67948
        45.100
  21086237.240   110808953.645 8        47.950    21086232.680    86344611.24048
        47.400
  21235311.480   111592362.711 8        47.300    21235310.500    86955119.09547
        44.600    21235311.180
  24377901.440   128106743.527 7        42.350    24377900.000    99823424.71944
        35.100    24377901.000
  25458944.200   133787603.077 6        40.150    25458943.820   104250047.96544
        32.050    25458944.360
  25154640.380   132188533.184 6        39.550    25154640.760   103004037.07445
        37.650    25154641.580
 19  9 29 20  4 30.0000000  0 10G05G10G13G15G20G21G24G27G29G32
  25324134.680   133079194.419 7        44.950    25324129.260   103698088.06344
        32.800    25324131.320
  23194554.180   121888220.669 8        45.400    23194552.940    94977853.03647
        42.750    23194553.280
  23384556.160   122886687.351 7        43.000    23384552.560    95755882.65645
        37.550
  20798455.480   109296676.887 9        49.400    20798451.360    85166245.37747
        44.600    20798452.160
  20946538.640   110074841.877 8        48.350    20946534.220    85772618.50548
        45.000
  21085338.260   110804229.462 8        48.350    21085333.740    86340930.05948
        46.800
  21222871.360   111526989.563 8        46.750    21222870.380    86904179.01047
        44.400    21222871.060
  24376614.620   128099981.282 6        40.950    24376613.140    99818155.43144
        34.850    24376614.140
  25477918.640   133887313.497 6        40.750    25477918.200   104327744.20344
        32.300    25477918.780
  25136475.440   132093076.156 6        40.550    25136475.700   102929655.03845
        37.250    25136476.600
 19  9 29 20  5  0.0000000  0 10G05G10G13G15G20G21G24G27G29G32
  25341067.700   133168169.976 6        39.600    25341060.400   103767419.56344
        34.450    25341062.560
  23179319.740   121808163.278 8        45.900    23179318.480    94915470.71946
        41.400    23179318.840
  23403235.720   122984849.119 7        42.050    23403232.100    95832372.32145
        36.050
  20809827.000   109356434.757 9        49.850    20809822.920    85212809.94447
        44.500    20809823.720
  20935486.660   110016763.475 9        49.100    20935482.260    85727362.63147
        44.800
  21084532.980   110799997.856 8        48.750    21084528.520    86337632.70948
        47.050
  21210528.460   111462127.301 8        46.850    21210527.440    86853637.03747
        44.600    21210528.140
  24375435.000   128093782.557 6        41.300    24375433.500    99813325.28144
        35.250    24375434.480
  25496864.480   133986873.444 6        40.150    25496862.600   104405389.13845
        36.350    25496864.620
  25118333.020   131997737.721 6        41.200    25118333.160   102855365.44244
        34.400    25118334.140
 19  9 29 20  5 30.0000000  0 10G05G10G13G15G20G21G24G27G29G32
  25358010.420   133257207.694 6        40.150    25358004.320   103836799.61245
        38.400    25358005.840
  23164097.220   121728168.374 8        46.500    23164095.960    94853137.07346
        39.450    23164096.340
  23421936.120   123083120.556 6        41.950    23421932.520    95908947.45245
        36.350
  20821259.840   109416514.823 9        50.300    20821255.800    85259625.56847
        44.800    20821256.580
  20924479.740   109958921.552 9        49.400    20924475.320    85682290.99948
        45.100
  21083820.880   110796255.669 8        48.650    21083816.480    86334716.72148
        46.650
  21198282.760   111397775.792 8        46.750    21198281.740    86803493.02047
        44.950    21198282.420
  24374361.980   128088143.836 6        40.750    24374360.440    99808931.46244
        35.150    24374361.420
  25515780.600   134086277.735 6        39.250    25515779.100   104482846.88344
        32.450    25515780.760
  25100212.780   131902515.582 6        40.200    25100212.880   102781166.53744
        34.550    25100213.900
 19  9 29 20  6  0.0000000  0 10G05G10G13G15G20G21G24G27G29G32
  25374961.660   133346291.208 7        43.350    25374957.160   103906215.23645
        36.800    25374958.080
  23148883.700   121648220.574 8        46.600    23148882.400    94790840.03945
        38.100    23148882.800
  23440653.980   123181483.466 7        42.150    23440650.360    95985593.82044
        35.850
  20832750.560   109476898.983 9        50.850    20832746.520    85306678.15448
        45.100    20832747.300
  20913514.920   109901300.802 9        49.450    20913510.500    85637391.70547
        44.950
  21083199.040   110792987.828 8        48.700    21083194.680    86332170.35048
        46.200
  21186131.500   111333920.642 8        47.700    21186130.480    86753735.78147
        44.150    21186131.180
  24373392.380   128083048.685 6        41.150    24373390.800    99804961.22945
        36.500    24373391.780
  25534663.480   134185507.056 5        36.700    25534662.340   104560168.18644
        32.300    25534663.720
  25082111.720   131807394.395 6        40.950    25082111.840   102707046.26945
        37.650    25082112.840
 19  9 29 20  6 30.0000000  0 10G05G10G13G15G20G21G24G27G29G32
  25391923.320   133435427.169 7        43.100    25391919.480   103975671.74444
        34.050    25391920.200
  23133680.620   121568327.742 8        46.000    23133679.200    94728585.86546
        40.000    23133679.640
  23459390.160   123279942.959 7        42.100    23459386.540    96062315.50344
        35.550
  20844300.260   109537592.843 9        50.750    20844296.200    85353972.07747
        44.900    20844296.980
  20902593.880   109843909.998 8        48.900    20902589.400    85592671.59847
        44.800
  21082668.980   110790202.265 8        48.700    21082664.680    86329999.76748
        46.400
  21174076.600   111270571.662 8        47.900    21174075.580    86704372.96448
        45.350    21174076.240
  24372527.480   128078503.889 6        41.750    24372525.900    99801419.84344
        34.950    24372526.880
  25553514.000   134284566.561 6        41.950    25553513.180   104637357.18042
        26.800    25553514.320
  25064031.420   131712382.206 6        41.800    25064031.600   102633010.90745
        37.500    25064032.560
 19  9 29 20  7  0.0000000  0 10G05G10G13G15G20G21G24G27G29G32
  25408895.780   133524618.740 6        40.700    25408891.900   104045171.54245
        37.200    25408892.780
  23118488.720   121488493.869 7        44.850    23118487.240    94666377.67646
        41.950    23118487.660
  23478145.000   123378500.090 7        43.050    23478141.320    96139113.23345
        36.250
  20855909.080   109598597.149 9        50.550    20855904.960    85401507.88647
        44.400    20855905.740
  20891717.440   109786753.710 8        48.400    20891712.920    85548134.24147
        44.900
  21082231.360   110787902.509 8        48.750    21082227.100    86328207.73948
        46.400
  21162119.100   111207734.444 8        47.550    21162118.080    86655408.91548
        45.250    21162118.720
  24371767.880   128074512.303 7        42.700    24371766.300    99798309.53745
        37.100    24371767.280
  25572332.540   134383457.453 7        43.150    25572332.180   104714414.66344
        32.050    25572332.960
  25045972.680   131617483.281 7        43.250    25045972.900   102559063.76245
        37.650    25045973.800
 19  9 29 20  7 30.0000000  0 10G05G10G13G15G20G21G24G27G29G32
  25425878.820   133613866.925 6        40.900    25425875.020   104114715.53944
        35.750    25425876.080
  23103308.420   121408721.274 7        44.150    23103306.960    94604217.27747
        43.800    23103307.380
  23496918.320   123477154.405 7        42.050    23496914.600    96215986.70145
        36.300
  20867576.900   109659911.726 9        50.150    20867572.780    85449285.45747
        43.850    20867573.540
  20880886.100   109729834.744 8        48.650    20880881.600    85503781.82947
        44.300
  21081886.540   110786090.373 8        48.950    21081882.280    86326795.67548
        45.950
  21150259.720   111145413.079 8        47.150    21150258.700    86606846.85748
        45.250    21150259.320
  24371113.780   128071075.118 6        41.450    24371112.240    99795631.22045
        36.300    24371113.200
  25591118.480   134482178.207 4        32.950    25591118.420   104791339.89241
        25.600    25591118.940
  25027935.920   131522699.880 7        43.750    25027936.160   102485206.63845
        37.150    25027937.040
 19  9 29 20  8  0.0000000  0 10G05G10G13G15G20G21G24G27G29G32
  25442871.880   133703167.905 7        43.600    25442868.460   104184300.67444
        35.100    25442869.520
  23088139.300   121329007.633 7        44.950    23088137.940    94542102.83747
        44.600    23088138.320
  23515709.220   123575900.981 6        41.500    23515705.480    96292932.05744
        35.250
  20879302.740   109721531.239 9        50.200    20879298.600    85497300.65047
        43.250    20879299.360
  20870099.600   109673151.349 8        48.850    20870095.100    85459612.95947
        44.600
  21081634.040   110784763.442 8        48.650    21081629.780    86325761.70148
        46.200
  21138498.360   111083606.705 8        47.200    21138497.340    86558686.07248
        45.100    21138497.940
  24370564.520   128068188.748 6        41.900    24370563.000    99793382.10845
        37.850    24370563.940
  25609871.180   134580778.656 6        41.650    25609870.840   104868133.20943
        31.150    25609871.400
  25009920.760   131428029.883 7        44.050    25009921.060   102411437.87345
        36.750    25009921.920
 19  9 29 20  8 30.0000000  0 10G05G10G13G15G20G21G24G27G29G32
  25459874.460   133792517.705 7        43.750    25459871.400   104253923.76745
        36.400    25459872.360
  23072980.760   121249349.462 8        46.600    23072979.540    94480031.58247
        43.850    23072979.900
  23534516.520   123674733.605 6        40.100    23534512.740    96369944.44245
        37.000
  20891085.400   109783449.472 9        50.600    20891081.220    85545548.63047
        42.700    20891081.980
  20859357.400   109616700.736 9        49.100    20859352.880    85415625.48547
        44.200
  21081473.200   110783918.107 8        48.450    21081468.900    86325103.00048
        45.900
  21126834.540   111022312.980 8        47.100    21126833.500    86510924.75748
        45.000    21126834.100
  24370119.140   128065848.447 7        42.600    24370117.680    99791558.50545
        36.200    24370118.620
  25628589.500   134679142.018 6        41.950    25628588.400   104944779.74044
        32.200    25628589.580
  24991926.580   131333469.847 7        42.550    24991926.900   102337754.75744
        33.900    24991927.740
 19  9 29 20  9  0.0000000  0 10G05G10G13G15G20G21G24G27G29G32
  25476887.960   133881924.408 6        41.250    25476885.100   104323591.21844
        32.050    25476886.020
  23057834.640   121169756.427 8        47.200    23057833.520    94418011.07447
        42.650    23057833.880
  23553341.460   123773659.051 6        40.400    23553337.700    96447029.14644
        34.650
  20902926.240   109845673.440 9        50.600    20902922.000    85594034.84847
        43.550    20902922.780
  20848661.480   109560493.278 9        49.650    20848656.920    85371827.48347
        44.600
  21081405.740   110783563.649 8        48.550    21081401.460    86324826.79548
        46.500
  21115270.380   110961543.127 8        47.900    21115269.360    86463571.65648
        45.100    21115269.960
  24369779.320   128064062.639 7        42.600    24369777.900    99790166.95045
        37.600    24369778.820
  25647274.400   134777329.363 5        37.200    25647272.560   105021289.13643
        29.600    25647273.940
  24973955.120   131239029.476 4        33.000    24973955.440   102264164.92143
        30.950    24973956.280
 19  9 29 20  9 30.0000000  0 10G05G10G13G15G20G21G24G27G29G32
  25493911.660   133971384.614 7        42.000    25493908.860   104393300.36644
        35.600    25493909.800
  23042700.580   121090226.223 8        46.650    23042699.500    94356039.49146
        39.950    23042699.860
  23572183.040   123872672.241 6        40.700    23572179.340    96524182.24645
        36.850
  20914824.260   109908197.863 9        50.350    20914819.960    85642755.18147
        43.750    20914820.740
  20838011.540   109504527.303 9        49.650    20838006.920    85328217.64647
        44.950
  21081431.220   110783697.521 8        48.100    21081426.960    86324931.11148
        46.300
  21103805.760   110901296.292 8        47.950    21103804.740    86416626.10348
        45.200    21103805.340
  24369544.300   128062827.745 7        42.050    24369542.920    99789204.71945
        37.700    24369543.820
  25665924.720   134875336.006 5        36.600    25665922.720   105097657.72344
        35.250    25665924.200
  24956005.940   131144706.566 4        32.700    24956006.260   102190666.84644
        33.000    24956007.080
 19  9 29 20 10  0.0000000  0  9G05G10G13G15G20G21G24G27G32
  25510945.300   134060897.340 6        41.750    25510942.500   104463050.47544
        35.050    25510943.540
  23027578.480   121010759.064 8        45.750    23027577.420    94294117.00346
        39.550    23027577.760
  23591040.920   123971771.050 6        40.850    23591037.260    96601402.04944
        35.350
  20926779.100   109971020.716 9        49.900    20926774.720    85691708.05647
        44.000    20926775.520
  20827407.700   109448803.522 9        49.150    20827403.000    85284796.52247
        44.550
  21081549.580   110784319.649 8        47.750    21081545.360    86325415.88248
        46.250
  21092441.080   110841574.543 8        47.550    21092440.000    86370089.69947
        44.800    21092440.620
  24369413.960   128062142.709 7        42.400    24369412.620    99788670.90545
        36.600    24369413.500
  24938079.320   131050501.813 5        36.800    24938079.620   102117260.56744
        35.200    24938080.400
 19  9 29 20 10 30.0000000  0 10G05G10G13G15G20G21G24G27G29G32
  25527989.340   134150464.396 7        42.750    25527986.560   104532842.87344
        35.500    25527987.660
  23012468.920   120931357.888 8        45.250    23012467.820    94232245.96746
        40.750    23012468.160
  23609915.080   124070955.499 6        41.650    23609911.460    96678688.59344
        35.950
  20938790.700   110034141.846 9        49.200    20938786.280    85740893.34347
        43.900    20938787.080
  20816850.560   109393325.145 8        48.700    20816845.800    85241566.62947
        44.900
  21081761.340   110785432.579 8        47.850    21081757.180    86326283.09448
        45.950
  21081176.980   110782381.450 8        47.600    21081175.860    86323965.25147
        44.800    21081176.500
  24369388.500   128062009.016 7        42.750    24369387.200    99788566.72645
        37.100    24369388.060
  25703119.400   135070798.548 5        36.200    25703119.340   105249967.80943
        28.300    25703119.960
  24920175.640   130956417.718 5        38.500    24920175.940   102043948.39845
        37.950    24920176.660
 19  9 29 20 11  0.0000000  0 10G05G10G13G15G20G21G24G27G29G32
  25545042.460   134240078.997 7        43.100    25545039.720   104602672.32844
        35.850    25545040.840
  22997370.760   120852016.727 8        45.850    22997369.660    94170421.73047
        43.600    22997369.980
  23628803.800   124170216.524 6        41.750    23628800.220    96756034.81444
        35.100
  20950857.300   110097552.314 8        48.400    20950852.920    85790304.07147
        44.500    20950853.720
  20806339.120   109338087.068 8        48.250    20806334.320    85198523.98647
        44.800
  21082065.280   110787030.094 8        47.750    21082061.180    86327527.89848
        46.050
  21070012.800   110723713.364 8        47.550    21070011.620    86278249.89048
        45.550    21070012.300
  24369466.620   128062419.405 7        42.600    24369465.280    99788886.50645
        37.200    24369466.140
  25721663.440   135168261.394 6        40.550    25721661.640   105325916.16644
        33.750    25721664.820
  24902293.820   130862448.490 7        42.550    24902294.140   101970725.76244
        35.800    24902294.820
 19  9 29 20 11 30.0000000  0 10G05G10G13G15G20G21G24G27G29G32
  25562105.120   134329743.594 6        40.650    25562102.420   104672540.76744
        34.550    25562103.540
  22982284.780   120772739.537 8        46.750    22982283.720    94108647.33647
        44.550    22982284.000
  23647707.420   124269555.820 7        42.650    23647703.840    96833442.03343
        31.950
  20962979.200   110161253.500 9        49.200    20962974.920    85839941.32447
        43.600    20962975.700
  20795874.240   109283093.892 8        48.700    20795869.440    85155672.17647
        44.800
  21082462.060   110789115.413 8        48.300    21082458.000    86329152.81248
        45.750
  21058949.360   110665574.663 8        48.100    21058948.140    86232947.03048
        45.450    21058948.840
  24369648.720   128063376.260 7        43.050    24369647.320    99789632.09745
        36.350    24369648.220
  25740170.380   135265516.076 6        39.800    25740169.180   105401698.76044
        32.150    25740171.560
  24884434.700   130768598.220 8        45.650    24884434.980   101897595.69245
        36.100    24884435.660
 19  9 29 20 12  0.0000000  0 10G05G10G13G15G20G21G24G27G29G32
  25579177.000   134419457.097 7        42.300    25579174.460   104742447.32444
        33.400    25579175.540
  22967211.020   120693526.557 8        46.700    22967210.040    94046922.97847
        44.900    22967210.300
  23666625.440   124368970.647 7        42.850    23666621.820    96910908.10744
        34.800
  20975155.840   110225242.566 9        49.800    20975151.680    85889802.91847
        43.250    20975152.440
  20785456.140   109228346.473 8        48.400    20785451.340    85113011.85447
        44.750
  21082951.680   110791688.609 8        48.400    21082947.640    86331157.90048
        45.750
  21047987.100   110607967.637 8        47.800    21047985.860    86188058.47248
        45.800    21047986.540
  24369934.620   128064878.478 6        41.650    24369933.160    99790802.64245
        36.500    24369934.060
  25758640.920   135362572.308 7        42.550    25758641.300   105477348.24344
        33.600    25758642.000
  24866598.240   130674867.074 7        44.900    24866598.500   101824558.52044
        33.850    24866599.180
 19  9 29 20 12 30.0000000  0  9G05G10G13G15G20G21G24G27G32
  25596258.940   134509223.282 6        41.200    25596256.520   104812394.89243
        28.900    25596257.580
  22952150.360   120614382.459 8        46.650    22952149.460    93985252.28447
        44.550    22952149.700
  23685558.180   124468462.883 7        42.900    23685554.540    96988434.50444
        34.650
  20987387.680   110289521.613 9        50.400    20987383.620    85939890.48347
        43.800    20987384.360
  20775085.780   109173849.979 8        48.650    20775081.000    85070547.05947
        44.750
  21083534.900   110794753.567 8        48.400    21083530.840    86333546.18348
        45.850
  21037127.060   110550897.658 8        47.500    21037125.820    86143588.37048
        45.750    21037126.480
  24370324.860   128066929.258 7        42.100    24370323.340    99792400.67745
        37.750    24370324.260
  24848785.300   130581259.732 7        43.750    24848785.520   101751617.88744
        32.750    24848786.160
 19  9 29 20 13  0.0000000  0  9G05G10G13G15G20G21G24G27G32
  25613350.700   134599040.593 7        43.200    25613348.260   104882382.27444
        33.400    25613349.360
  22937102.820   120535307.237 8        46.300    22937102.000    93923635.25647
        42.700    22937102.200
  23704505.180   124568029.984 7        42.750    23704501.500    97066019.23444
        32.950
  20999674.260   110354088.124 9        50.700    20999670.240    85990202.06447
        44.000    20999670.960
  20764763.240   109119604.783 8        48.900    20764758.500    85028278.07247
        44.650
  21084211.700   110798310.167 8        48.850    21084207.620    86336317.55748
        46.000
  21026369.540   110494366.554 8        47.600    21026368.300    86099538.17948
        45.750    21026368.960
  24370819.200   128069527.100 7        43.600    24370817.620    99794424.99045
        37.450    24370818.560
  24830995.940   130487776.266 7        43.800    24830996.120   101678773.73744
        34.700    24830996.740
 19  9 29 20 13 30.0000000  0  9G05G10G13G15G20G21G24G27G32
  25630452.260   134688909.490 6        41.500    25630449.800   104952409.89844
        34.500    25630450.900
  22922068.680   120456302.464 8        45.800    22922067.900    93862073.11546
        41.200    22922068.100
  23723466.200   124667670.765 7        42.200    23723462.460    97143661.38643
        30.600
  21012015.220   110418940.325 9        50.550    21012011.180    86040736.25347
        43.900    21012011.900
  20754488.980   109065613.175 8        48.950    20754484.220    84986206.68248
        45.000
  21084982.240   110802359.293 8        48.800    21084978.140    86339472.71048
        46.000
  21015715.020   110438376.836 8        47.350    21015713.800    86055909.86548
        45.600    21015714.460
  24371417.680   128072672.018 7        43.050    24371416.020    99796875.58645
        37.000    24371417.000
  24813230.480   130394418.173 7        42.800    24813230.620   101606027.20145
        36.650    24813231.220
 19  9 29 20 14  0.0000000  0  9G05G10G13G15G20G21G24G27G32
  25647564.160   134778833.294 7        43.300    25647561.760   105022480.39045
        36.350    25647562.840
  22907048.840   120377372.835 8        45.200    22907048.040    93800569.51046
        41.500    22907048.260
  23742441.640   124767387.370 7        42.300    23742437.880    97221362.60643
        31.900
  21024410.940   110484080.161 9        50.100    21024406.860    86091494.57447
        43.650    21024407.580
  20744263.980   109011880.487 9        49.250    20744259.220    84944337.06847
        44.850
  21085847.360   110806905.345 9        49.050    21085843.220    86343015.08448
        45.650
  21005164.680   110382934.504 8        47.350    21005163.460    86012708.06248
        45.300    21005164.120
  24372120.840   128076367.089 7        43.250    24372119.120    99799754.88245
        37.550    24372120.100
  24795489.680   130301189.957 6        39.650    24795489.760   101533381.90045
        38.150    24795490.380
 19  9 29 20 14 30.0000000  0  9G05G10G13G15G20G21G24G27G32
  25664684.160   134868799.417 7        42.300    25664681.840   105092583.77944
        35.950    25664682.920
  22892041.100   120298506.954 8        45.850    22892040.280    93739115.58246
        41.650    22892040.520
  23761428.720   124867165.193 7        42.600    23761424.900    97299111.56243
        31.850
  21036858.780   110549493.823 9        49.750    21036854.640    86142466.26347
        43.350    21036855.360
  20734086.240   108958396.110 9        49.300    20734081.460    84902660.93447
        44.950
  21086804.740   110811936.064 9        49.300    21086800.500    86346935.12148
        46.050
  20994716.460   110328028.871 8        47.600    20994715.200    85969924.48148
        45.050    20994715.900
  24372926.260   128080599.337 7        43.200    24372924.460    99803052.72144
        34.950    24372925.460
  24777771.400   130208080.212 6        39.300    24777771.420   101460829.01745
        37.700    24777772.060
 19  9 29 20 15  0.0000000  0  9G05G10G13G15G20G21G24G27G32
  25681813.680   134958815.529 6        40.650    25681811.440   105162726.12644
        33.900    25681812.500
  22877047.160   120219713.517 8        46.550    22877046.320    93677718.14047
        43.650    22877046.580
  23780428.680   124967010.520 7        42.050    23780424.820    97376913.07044
        34.250
  21049359.740   110615186.863 8        48.800    21049355.580    86193655.63147
        44.000    21049356.320
  20723957.420   108905168.739 9        49.000    20723952.620    84861185.07448
        45.000
  21087855.920   110817459.705 9        49.050    21087851.620    86351239.24948
        46.350
  20984372.320   110273670.109 8        47.100    20984371.040    85927567.01248
        45.700    20984371.740
  24373835.200   128085375.822 7        42.750    24373833.280    99806774.70345
        37.750    24373834.340
  24760077.380   130115097.745 7        43.250    24760077.360   101388375.23945
        38.700    24760078.000
 19  9 29 20 15 30.0000000  0  9G05G10G13G15G20G21G24G27G32
  25698952.460   135048879.958 6        41.350    25698950.260   105232906.08845
        37.200    25698951.320
  22862066.920   120140992.106 8        47.350    22862066.100    93616376.80347
        44.700    22862066.380
  23799440.900   125066920.245 7        42.500    23799437.000    97454764.76344
        34.300
  21061913.240   110681156.088 8        48.850    21061909.100    86245060.19747
        43.950    21061909.880
  20713877.580   108852198.754 8        48.650    20713872.740    84819909.77647
        44.850
  21089000.660   110823474.987 9        49.000    21088996.280    86355926.47948
        46.300
  20974132.440   110219859.326 8        47.000    20974131.140    85885636.56048
        45.450    20974131.860
  24374847.300   128090694.357 7        43.000    24374845.320    99810919.02445
        37.600    24374846.400
  24742407.420   130022242.025 7        42.850    24742407.320   101316020.16044
        35.350    24742407.960
 19  9 29 20 16  0.0000000  0  9G05G10G13G15G20G21G24G27G32
  25716100.380   135138992.781 7        43.000    25716098.260   105303123.80244
        35.350    25716099.300
  22847100.760   120062344.412 8        47.400    22847099.920    93555092.91447
        44.000    22847100.220
  23818465.180   125166893.317 7        42.550    23818461.240    97532665.83144
        32.500
  21074519.080   110747400.442 9        49.100    21074514.980    86296679.15047
        44.500    21074515.780
  20703847.120   108799488.394 8        48.650    20703842.280    84778836.78448
        45.200
  21090239.180   110829983.091 9        49.000    21090234.740    86360997.72948
        46.100
  20963997.260   110166598.753 8        46.800    20963995.960    85844134.83048
        45.700    20963996.680
  24375962.560   128096555.054 7        42.750    24375960.560    99815485.81346
        39.550    24375961.660
  24724761.900   129929514.665 7        44.250    24724761.760   101243765.14944
        34.100    24724762.420
 19  9 29 20 16 30.0000000  0  9G05G10G13G15G20G21G24G27G32
  25733257.360   135229153.230 7        44.300    25733255.320   105373378.63644
        32.600    25733256.360
  22832148.700   119983770.765 8        46.600    22832147.840    93493866.75747
        42.900    22832148.120
  23837501.040   125266927.187 7        42.750    23837497.100    97610614.26044
        32.100
  21087176.800   110813917.575 9        49.200    21087172.760    86348510.68647
        44.150    21087173.560
  20693866.180   108747038.402 8        48.750    20693861.340    84737966.69248
        45.000
  21091571.420   110836983.880 9        49.250    21091566.920    86366452.90248
        45.750
  20953967.080   110113890.143 8        47.350    20953965.780    85803063.22447
        44.950    20953966.520
  24377180.680   128102956.425 7        42.900    24377178.700    99820473.90545
        37.400    24377179.800
  24707140.880   129836915.893 7        44.850    24707140.720   101171610.39544
        35.050    24707141.420
 19  9 29 20 17  0.0000000  0  9G05G10G13G15G20G21G24G27G32
  25750423.160   135319359.558 7        43.250    25750421.200   105443669.16144
        34.700    25750422.200
  22817210.520   119905270.209 8        45.800    22817209.640    93432697.53446
        41.200    22817209.940
  23856547.780   125367018.297 7        42.100    23856543.820    97688607.31144
        34.900
  21099885.680   110880703.387 8        48.950    21099881.680    86400551.55847
        44.550    21099882.520
  20683934.780   108694848.708 8        48.650    20683929.960    84697299.39647
        44.700
  21092997.080   110844475.501 9        49.150    21092992.520    86372290.51448
        45.700
  20944041.940   110061733.451 8        47.200    20944040.680    85762421.65448
        45.800    20944041.400
  24378501.200   128109895.786 6        41.900    24378499.200    99825881.21046
        39.350    24378500.320
  24689544.140   129744444.599 7        44.800    24689543.940   101099554.91344
        34.850    24689544.680
 19  9 29 20 17 30.0000000  0  9G05G10G13G15G20G21G24G27G32
  25767598.480   135409616.271 6        41.250    25767596.600   105513999.03744
        35.000    25767597.540
  22802287.420   119826848.797 8        47.150    22802286.500    93371589.96046
        40.800    22802286.800
  23875606.100   125467170.195 7        42.050    23875602.100    97766647.73244
        32.500
  21112646.340   110947761.253 9        49.250    21112642.400    86452804.41847
        44.300    21112643.240
  20674054.120   108642925.611 8        48.950    20674049.300    84656839.85247
        44.750
  21094517.160   110852463.357 9        49.400    21094512.540    86378514.81048
        45.450
  20934223.160   110010135.740 8        47.550    20934221.920    85722215.67648
        45.550    20934222.660
  24379924.880   128117377.436 6        41.600    24379922.920    99831711.08745
        38.500    24379924.040
  24671972.800   129652106.774 7        44.100    24671972.540   101027603.38145
        38.300    24671973.300
 19  9 29 20 18  0.0000000  0  9G05G10G13G15G20G21G24G27G32
  25784782.920   135499921.113 5        38.500    25784781.120   105584366.43843
        29.050    25784781.980
  22787379.240   119748505.599 8        48.100    22787378.260    93310543.31246
        40.800    22787378.560
  23894675.260   125567378.976 7        42.250    23894671.200    97844732.46644
        33.800
  21125458.020   111015087.185 9        49.650    21125454.140    86505266.17947
        44.500    21125454.980
  20664224.140   108591268.796 8        48.950    20664219.300    84616587.78847
        44.950
  21096131.360   110860945.820 8        48.900    21096126.680    86385124.51948
        45.750
  20924510.760   109959096.973 8        47.550    20924509.540    85682445.22648
        46.050    20924510.280
  24381451.220   128125398.490 7        42.650    24381449.300    99837961.26546
        39.550    24381450.420
  24654426.620   129559901.278 7        44.150    24654426.280   100955754.98245
        36.700    24654427.040
 19  9 29 20 18 30.0000000  0  9G05G10G13G15G20G21G24G27G32
  25801974.840   135590270.822 4        34.000    25801974.880   105654772.69643
        29.550    25801975.280
  22772485.740   119670239.407 8        48.250    22772484.620    93249556.64946
        41.750    22772484.940
  23913754.480   125667640.754 6        41.800    23913750.400    97922858.51344
        32.550
  21138319.940   111082677.065 9        49.500    21138316.100    86557933.61647
        44.200    21138316.920
  20654444.740   108539877.610 8        48.950    20654439.860    84576542.71447
        44.650
  21097839.280   110869920.858 9        49.000    21097834.520    86392118.05948
        45.350
  20914904.800   109908617.404 8        47.950    20914903.580    85643110.51448
        45.900    20914904.340
  24383079.640   128133955.977 7        42.950    24383077.820    99844629.43246
        40.100    24383078.900
  24636905.380   129467826.800 7        42.800    24636904.940   100884008.67244
        35.700    24636905.700
 19  9 29 20 19  0.0000000  0  9G05G10G13G15G20G21G24G27G32
  25819176.740   135680666.093 8        45.800    25819176.340   105725210.47744
        35.600    25819176.900
  22757607.120   119592051.506 8        47.000    22757605.880    93188631.03447
        43.300    22757606.200
  23932843.580   125767954.349 6        41.700    23932839.460    98001024.91443
        31.550
  21151231.860   111150529.671 9        49.300    21151228.060    86610805.76847
        43.950    21151228.860
  20644716.180   108488753.716 8        48.700    20644711.280    84536705.91848
        45.300
  21099641.040   110879389.024 9        49.000    21099636.200    86399495.84948
        45.250
  20905405.500   109858698.285 8        47.200    20905404.300    85604212.52048
        46.700    20905405.040
  24384810.040   128143049.293 7        42.650    24384808.300    99851715.13546
        40.850    24384809.360
  24619409.300   129375884.455 7        42.300    24619408.780   100812365.44244
        35.550    24619409.580
 19  9 29 20 19 30.0000000  0  9G05G10G13G15G20G21G24G27G32
  25836387.400   135771107.287 5        38.650    25836386.780   105795684.15744
        32.150    25836387.300
  22742743.640   119513943.275 8        46.800    22742742.320    93127767.53947
        43.700    22742742.620
  23951942.240   125868318.301 7        42.150    23951938.080    98079230.59044
        35.850
  21164193.480   111218643.357 9        49.100    21164189.700    86663881.35347
        43.700    21164190.500
  20635038.860   108437899.078 8        48.800    20635033.920    84497078.93748
        45.600
  21101536.700   110889350.690 8        48.850    21101531.800    86407258.19048
        45.950
  20896013.420   109809342.724 8        47.650    20896012.220    85565753.67848
        45.950    20896012.960
  24386642.320   128152677.905 7        42.950    24386640.660    99859217.94846
        41.250    24386641.680
  24601938.600   129284075.486 7        43.100    24601938.000   100740826.07244
        35.450    24601938.840
 19  9 29 20 20  0.0000000  0  8G10G13G15G20G21G24G27G32
  22727895.560   119435916.272 8        46.400    22727894.220    93066967.35347
        44.600    22727894.540
  23971050.260   125968731.374 7        42.200    23971046.080    98157474.51144
        35.300
  21177204.520   111287016.826 9        49.100    21177200.740    86717159.37147
        43.400    21177201.540
  20625413.200   108387315.945 8        48.800    20625408.240    84457663.52848
        45.700
  21103526.440   110899806.784 8        48.550    21103521.480    86415405.80048
        45.750
  20886729.000   109760552.786 8        48.350    20886727.800    85527735.57348
        45.850    20886728.520
  24388576.380   128162841.448 7        42.550    24388574.800    99867137.59246
        39.550    24388575.800
  24584493.520   129192401.276 6        40.350    24584492.840   100669391.67245
        38.400    24584493.720
 19  9 29 20 20 30.0000000  0  9G05G10G13G15G20G21G24G27G32
  25870832.500   135952155.463 4        33.700    25870830.720   105936731.7434
        20.650
  22713063.200   119357971.865 8        46.850    22713061.900    93006231.50047
        43.950    22713062.200
  23990167.380   126069192.271 6        41.750    23990163.180    98235755.71145
        37.350
  21190264.800   111355649.118 9        49.150    21190261.000    86770639.07147
        43.000    21190261.800
  20615839.500   108337005.923 9        49.050    20615834.560    84418460.92948
        45.800
  21105610.320   110910757.592 8        48.900    21105605.300    86423938.89947
        44.700
  20877552.720   109712330.922 8        48.200    20877551.480    85490160.10148
        45.750    20877552.200
  24390612.100   128173539.182 6        41.700    24390610.600    99875473.48245
        38.850    24390611.580
  24567074.260   129100862.912 6        40.550    24567073.520   100598063.14045
        37.300    24567074.420
 19  9 29 20 21  0.0000000  0  9G05G10G13G15G20G21G24G27G32
  25888071.440   136042735.038 5        38.600    25888068.600   106007309.17442
        27.700    25888070.920
  22698246.860   119280111.725 8        46.800    22698245.600    92945561.28447
        42.900    22698245.880
  24009293.420   126169700.030 6        41.500    24009289.200    98314073.42644
        33.700
  21203374.000   111424538.411 9        49.250    21203370.160    86824319.02947
        43.400    21203370.980
  20606318.200   108286971.219 9        49.200    20606313.260    84379472.86348
        45.400
  21107788.460   110922203.863 8        48.800    21107783.400    86432858.06947
        44.850
  20868484.940   109664679.433 8        47.550    20868483.660    85453029.09748
        46.150    20868484.400
  24392749.420   128184770.874 7        42.850    24392748.000    99884225.46945
        38.850    24392748.940
  24549681.180   129009461.994 5        38.500    24549680.380   100526841.66945
        38.250    24549681.320
 19  9 29 20 21 30.0000000  0  9G05G10G13G15G20G21G24G27G32
  25905316.860                          37.950
                  25905315.960
  22683444.820   119202326.693 8        47.500    22683443.560    92884949.57047
        42.050    22683443.840
  24028426.040   126270242.419 6        40.750    24028421.840    98392418.10244
        35.900
  21216529.780   111493672.438 9        49.600    21216525.920    86878189.68347
        43.750    21216526.760
  20596847.680   108237203.287 9        49.100    20596842.740    84340692.66548
        45.550
  21110058.960   110934135.350 8        48.600    21110053.860    86442155.32048
        45.200
  20859524.080   109617589.711 8        47.850    20859522.740    85416335.83048
        46.350    20859523.480
  24394986.180   128196525.180 7        43.700    24394984.840    99893384.68045
        38.650    24394985.740
  24532312.380   128918188.870 6        39.750    24532311.560   100455719.85745
        36.750    24532312.520
 19  9 29 20 22  0.0000000  0  8G10G13G15G20G21G24G27G32
  22668659.600   119124629.903 8        47.700    22668658.320    92824406.60346
        41.600    22668658.600
  24047567.300   126370830.385 6        39.750    24047563.120    98470798.32344
        34.250
  21229734.160   111563061.884 9        49.950    21229730.320    86932259.37347
        44.250    21229731.140
  20587430.520   108187715.757 9        49.200    20587425.560    84302130.96548
        45.400
  21112424.140   110946564.550 8        48.450    21112419.020    86451840.40048
        45.350
  20850672.780   109571075.942 8        47.650    20850671.440    85380091.36348
        46.050    20850672.180
  24397324.560   128208813.350 7        43.400    24397323.260    99902959.89245
        38.650    24397324.140
  24514970.420   128827056.686 7        42.050    24514969.620   100384707.91345
        36.850    24514970.580
 19  9 29 20 22 30.0000000  0  8G10G13G15G20G21G24G27G32
  22653891.860   119047024.927 8        47.750    22653890.560    92763935.19946
        41.750    22653890.840
  24066717.360   126471464.918 6        39.750    24066713.240    98549214.84745
        36.650
  21242987.280   111632707.384 9        49.950    21242983.460    86986528.59447
        43.900    21242984.240
  20578067.420   108138512.260 9        49.350    20578062.440    84263790.58048
        45.300
  21114884.540   110959494.191 8        48.450    21114879.440    86461915.43747
        44.950
  20841931.820   109525141.979 8        47.050    20841930.480    85344298.68148
        45.550    20841931.220
  24399764.820   128221636.843 7        43.150    24399763.540    99912952.21646
        39.400    24399764.420
  24497655.920   128736068.731 7        42.600    24497655.100   100313808.31744
        35.250    24497656.080
 19  9 29 20 23  0.0000000  0  8G10G13G15G20G21G24G27G32
  22639140.100   118969503.920 8        46.750    22639138.760    92703529.25147
        42.950    22639139.040
  24085874.240   126572135.089 6        40.300    24085870.220    98627659.09044
        35.600
  21256287.080   111702598.102 9        49.550    21256283.260    87040988.89247
        44.500    21256284.020
  20568757.100   108089586.062 9        49.200    20568752.100    84225666.28648
        45.650
  21117438.440   110972915.208 8        48.650    21117433.360    86472373.36848
        45.100
  20833299.880   109479780.978 8        47.500    20833298.560    85308952.46748
        45.200    20833299.300
  24402305.060   128234985.652 7        43.000    24402303.780    99923353.87146
        39.800    24402304.640
  24480367.340   128645216.906 7        43.500    24480366.500   100243014.77545
        36.750    24480367.480
 19  9 29 20 23 30.0000000  0  8G10G13G15G20G21G24G27G32
  22624404.660   118892068.779 8        47.200    22624403.300    92643190.21847
        43.800    22624403.580
  24105037.740   126672840.166 6        40.300    24105033.800    98706130.55644
        33.000
  21269633.400   111772733.217 9        49.350    21269629.580    87095639.60647
        43.850    21269630.340
  20559499.920   108040939.206 9        49.200    20559494.940    84187759.64448
        45.250
  21120086.020   110986828.355 9        49.000    21120080.940    86483214.76547
        44.850
  20824777.400   109434995.248 8        48.100    20824776.080    85274054.50847
        44.900    20824776.840
  24404945.160   128248859.421 7        42.750    24404943.880    99934164.62345
        38.950    24404944.720
  24463104.960   128554502.871 7        44.150    24463104.080   100172328.52045
        36.200    24463105.060
 19  9 29 20 24  0.0000000  0  8G10G13G15G20G21G24G27G32
  22609686.220   118814722.962 8        47.650    22609684.880    92582920.79247
        44.550    22609685.140
  24124208.100   126773581.043 6        40.200    24124204.240    98784629.89245
        36.850
  21283026.320   111843113.373 9        49.300    21283022.540    87150481.25847
        44.200    21283023.300
  20550296.680   107992575.690 8        48.800    20550291.680    84150073.78648
        45.900
  21122827.720   111001236.136 9        49.000    21122822.640    86494441.58948
        45.750
  20816365.180   109390788.878 8        47.700    20816363.840    85239608.00448
        45.400    20816364.620
  24407685.400   128263259.498 7        43.300    24407684.140    99945385.46646
        39.550    24407684.980
  24445869.440   128463929.743 8        45.100    24445868.580   100101752.10045
        36.000    24445869.540
 19  9 29 20 24 30.0000000  0  8G10G13G15G20G21G24G27G32
  22594984.580   118737465.394 8        47.750    22594983.260    92522720.12248
        45.050    22594983.520
  24143384.480   126874353.795 6        39.350    24143380.720    98863154.10845
        36.950
  21296465.060   111913734.460 8        48.900    21296461.320    87205510.67048
        45.100    21296462.060
  20541147.240   107944495.098 8        48.100    20541142.260    84112608.40648
        46.100
  21125663.140   111016136.279 9        49.050    21125658.040    86506052.09648
        46.100
  20808063.240   109347162.118 8        46.900    20808061.900    85205613.14948
        45.950    20808062.680
  24410525.160   128278182.490 7        42.350    24410523.940    99957013.77446
        39.850    24410524.760
  24428660.480   128373496.093 7        44.700    24428659.620   100031284.36145
        36.050    24428660.540
 19  9 29 20 25  0.0000000  0  8G10G13G15G20G21G24G27G32
  22580300.700   118660301.128 8        47.850    22580299.380    92462592.14747
        43.900    22580299.660
  24162567.440   126975160.785 6        40.400    24162563.760    98941704.94645
        37.050
  21309950.060   111984598.619 8        48.800    21309946.340    87260729.47647
        44.600    21309947.100
  20532052.580   107896702.521 8        48.450    20532047.660    84075367.44548
        46.000
  21128593.040   111031532.824 9        49.150    21128587.940    86518049.38848
        46.150
  20799872.560   109304120.062 8        47.600    20799871.240    85172073.90048
        45.700    20799872.040
  24413464.940   128293631.236 7        42.550    24413463.780    99969051.75946
        39.650    24413464.580
  24411478.940   128283206.685 8        45.100    24411478.080    99960929.05444
        34.650    24411478.980
 19  9 29 20 25 30.0000000  0  8G10G13G15G20G21G24G27G32
  22565633.900   118583226.508 8        47.700    22565632.540    92402534.01047
        42.100    22565632.820
  24181755.740   127075995.975 6        40.900    24181752.080    99020277.81744
        35.200
  21323480.060   112055699.346 9        49.200    21323476.360    87316132.63047
        44.500    21323477.140
  20523012.200   107849195.016 8        48.850    20523007.300    84038348.60848
        46.350
  21131616.440   111047420.793 8        48.950    21131611.380    86530429.61748
        46.050
  20791792.540   109261659.406 8        48.100    20791791.240    85138987.68648
        46.050    20791792.020
  24416503.620   128309599.799 7        42.550    24416502.520    99981494.83845
        38.400    24416503.260
  24394324.100   128193057.553 7        44.800    24394323.220    99890683.05545
        36.750    24394324.080
 19  9 29 20 26  0.0000000  0  8G10G13G15G20G21G24G27G32
  22550985.440   118506248.315 8        46.800    22550984.040    92342551.01747
        43.150    22550984.320
  24200950.160   127176863.330 6        40.950    24200946.580    99098875.73845
        36.950
  21337055.860   112127040.725 9        49.450    21337052.180    87371723.31347
        44.250    21337052.960
  20514027.420   107801979.776 8        48.800    20514022.580    84001557.51648
        46.750
  21134734.540   111063806.317 9        49.100    21134729.480    86543197.54548
        46.650
  20783824.580   109219787.418 8        48.350    20783823.260    85106360.17048
        46.050    20783824.040
  24419642.080   128326092.686 7        42.550    24419641.000    99994346.45345
        38.500    24419641.760
  24377197.180   128103055.173 8        45.000    24377196.260    99820551.36945
        37.300    24377197.120
 19  9 29 20 26 30.0000000  0  8G10G13G15G20G21G24G27G32
  22536354.500   118429362.464 8        45.300    22536353.080    92282639.99747
        43.250    22536353.360
  24220149.440   127277756.098 6        41.100    24220145.920    99177493.45744
        34.000
  21350676.040   112198615.390 9        49.650    21350672.360    87427495.77347
        43.600    21350673.160
  20505097.580   107755053.252 8        48.750    20505092.760    83964991.40448
        46.000
  21137946.300   111080683.993 9        49.150    21137941.240    86556348.97748
        45.950
  20775968.060   109178501.079 8        47.900    20775966.720    85074189.01248
        45.300    20775967.500
  24422879.140   128343103.524 7        42.700    24422878.040   100007601.63845
        36.850    24422878.820
  24360097.340   128013195.167 7        43.350    24360096.420    99750530.60645
        38.050    24360097.260
 19  9 29 20 27  0.0000000  0  8G10G13G15G20G21G24G27G32
  22521741.440   118352570.728 8        47.150    22521740.040    92222802.31147
        42.800    22521740.340
  24239353.380   127378673.308 6        40.800    24239349.900    99256130.23345
        36.650
  21364340.480   112270422.549 9        49.800    21364336.800    87483449.39147
        43.600    21364337.620
  20496223.060   107708417.430 8        48.700    20496218.280    83928651.80648
        46.200
  21141251.680   111098053.740 8        48.950    21141246.640    86569883.83148
        46.250
  20768223.360   109137802.333 8        48.050    20768221.980    85042475.70948
        45.550    20768222.760
  24426214.600   128360631.535 7        42.700    24426213.460   100021259.82845
        36.850    24426214.240
  24343024.840   127923478.782 7        43.500    24343023.900    99680621.80445
        36.500    24343024.720
 19  9 29 20 27 30.0000000  0  8G10G13G15G20G21G24G27G32
  22507146.740   118275875.280 8        48.300    22507145.360    92163039.62647
        43.900    22507145.640
  24258561.920   127479614.518 6        41.350    24258558.440    99334785.68044
