     2.11           OBSERVATION DATA    G (GPS)             RINEX VERSION / TYPE
teqc  2018Jun8      NGS Web             20191128 00:43:22UTCPGM / RUN BY / DATE
Linux 2.4.21-27.ELsmp|Opteron|gcc|Linux 64|=+               COMMENT
teqc  2019Feb25     CORS-ADM Account    20191031 19:44:31UTCCOMMENT
teqc  2019Feb25     NOAA/NOS/NGS/CORS   20190930 03:27:13UTCCOMMENT
Spider V7.2.2.7822                      2019 09 29 02:09    COMMENT
BIT 2 OF LLI FLAGS DATA COLLECTED UNDER A/S CONDITION       COMMENT
SNR is mapped to RINEX snr flag value [1-9]                 COMMENT
Lx:    >= 25dBHz -> 1; 26-27dBHz -> 2; 28-31dBHz -> 3       COMMENT
       32-35dBHz -> 4; 36-38dBHz -> 5; 39-41dBHz -> 6       COMMENT
       42-44dBHz -> 7; 45-48dBHz -> 8; >= 49dBHz -> 9       COMMENT
US2010                                                      COMMENT
teqc.e edited: all SBAS satellites excluded                 COMMENT
teqc.e edited: all QZSS satellites excluded                 COMMENT
Forced Modulo Decimation to 30 seconds                      COMMENT
NJTR                                                        MARKER NAME
SmartNet  NA        SMRTNT                                  OBSERVER / AGENCY
355965              LEICA GRX1200GGPRO  4.30/6.525          REC # / TYPE / VERS
15072033            LEIAR10         NONE                    ANT # / TYPE
  1278261.2780 -4703708.0040  4099884.5550                  APPROX POSITION XYZ
        0.0000        0.0000        0.0000                  ANTENNA: DELTA H/E/N
     1     1                                                WAVELENGTH FACT L1/2
     7    C1    L1    S1    P2    L2    S2    C2            # / TYPES OF OBSERV
    30.0000                                                 INTERVAL
teqc.w windowed: start @ 2019 Sep 29 16:00:00.000           COMMENT
teqc.w windowed:  end  @ 2019 Sep 30 04:00:00.000           COMMENT
teqc.w edited: all GLONASS satellites excluded              COMMENT
teqc.w edited: all SBAS satellites excluded                 COMMENT
teqc.w edited: all Galileo satellites excluded              COMMENT
teqc.w edited: all Beidou satellites excluded               COMMENT
teqc.w edited: all QZSS satellites excluded                 COMMENT
  2019     9    29    16     0    0.0000000     GPS         TIME OF FIRST OBS
    18                                                      LEAP SECONDS
                                                            END OF HEADER
 19  9 29 16  0  0.0000000  0 10G02G05G06G09G12G13G15G19G25G29
  21102829.660   110896131.654 8        48.250    21102822.560    86412553.76348
        45.700
  20121222.860   105737760.282 9        51.000    20121218.280    82393062.93148
        47.850    20121219.120
  23486665.860   123423243.420 7        44.800    23486665.160    96173957.70946
        40.900    23486666.240
  24546414.640   128992284.229 7        43.200    24546413.740   100513473.47845
        37.150    24546414.180
  24050122.100   126384214.679 7        43.200    24050118.520    98481177.62745
        38.150    24050119.540
  23329721.020   122598523.222 7        42.750    23329717.560    95531338.20445
        37.950
  25328601.220   133102713.317 6        40.900    25328598.860   103716394.41644
        35.900    25328599.800
  25525763.860   134138760.118 5        37.650    25525759.260   104523676.84444
        35.600
  23537468.960   123690229.538 7        43.600    23537467.060    96381995.05646
        39.200    23537468.240
  22267158.080   117014720.201 8        48.850    22267153.840    91180285.52446
        41.600    22267154.720
 19  9 29 16  0 30.0000000  0 10G02G05G06G09G12G13G15G19G25G29
  21105493.280   110910128.958 8        48.250    21105486.160    86423460.73948
        45.950
  20119134.980   105726788.262 9        51.150    20119130.380    82384513.30948
        47.700    20119131.220
  23501173.320   123499480.542 7        44.650    23501172.680    96233363.19346
        41.350    23501173.740
  24562518.260   129076909.260 7        42.950    24562517.380   100579415.03845
        38.550    24562517.820
  24068589.800   126481263.171 7        43.800    24068586.200    98556799.82044
        35.700    24068587.240
  23309468.280   122492094.352 6        41.350    23309464.760    95448406.62745
        38.400
  25305993.780   132983910.652 6        41.400    25305991.460   103623820.92545
        36.850    25305992.400
  25547767.740   134254390.707 5        38.550    25547763.020   104613778.47544
        34.700
  23548338.160   123747347.301 7        43.950    23548336.240    96426502.35746
        39.000    23548337.420
  22251414.480   116931987.143 9        49.850    22251410.280    91115818.20446
        41.750    22251411.140
 19  9 29 16  1  0.0000000  0 10G02G05G06G09G12G13G15G19G25G29
  21108202.620   110924366.589 8        48.200    21108195.500    86434554.99148
        46.250
  20117133.660   105716271.049 9        51.000    20117129.020    82376318.09048
        47.950    20117129.860
  23515708.100   123575861.219 8        45.550    23515707.500    96292880.55546
        40.900    23515708.540
  24578687.960   129161881.531 7        43.200    24578687.100   100645627.17444
        34.050    24578687.540
  24087073.500   126578395.823 7        44.300    24087069.900    98632487.57245
        36.300    24087070.980
  23289243.580   122385813.727 7        42.300    23289240.060    95365590.70945
        36.200
  25283374.100   132865043.999 6        39.750    25283371.880   103531197.61445
        36.400    25283372.780
  25569778.200   134370055.982 5        36.050    25569773.380   104703907.12544
        34.900
  23559283.720   123804866.450 7        43.650    23559281.820    96471322.43845
        38.700    23559282.960
  22235736.080   116849596.479 9        50.100    22235731.860    91051617.69347
        42.050    22235732.720
 19  9 29 16  1 30.0000000  0 10G02G05G06G09G12G13G15G19G25G29
  21110956.460   110938838.055 8        48.650    21110949.360    86445831.45448
        45.950
  20115217.420   105706200.993 9        51.050    20115212.800    82368471.28148
        47.950    20115213.620
  23530268.900   123652378.221 8        45.100    23530268.340    96352504.15046
        41.700    23530269.320
  24594921.880   129247191.338 7        43.250    24594921.040   100712102.32845
        36.300    24594921.480
  24105571.200   126675601.903 7        43.400    24105567.580    98708232.51445
        36.000    24105568.700
  23269046.500   122279677.694 8        45.000    23269043.040    95282887.34845
        36.850
  25260741.420   132746108.925 5        38.650    25260739.280   103438520.96844
        33.400    25260740.160
  25591793.720   134485747.233 5        37.250    25591788.860   104794055.83944
        33.000
  23570303.760   123862777.135 7        42.900    23570301.920    96516447.63345
        37.700    23570303.040
  22220121.940   116767543.496 9        49.900    22220117.700    90987680.30846
        41.250    22220118.560
 19  9 29 16  2  0.0000000  0 10G02G05G06G09G12G13G15G19G25G29
  21113756.140   110953550.428 8        48.750    21113749.060    86457295.63948
        46.250
  20113387.280   105696583.445 9        51.100    20113382.680    82360977.08048
        47.850    20113383.480
  23544856.860   123729037.951 7        43.850    23544856.360    96412238.93547
        42.350    23544857.300
  24611220.820   129332842.677 7        42.900    24611219.960   100778843.62644
        35.800    24611220.380
  24124083.580   126772885.179 7        42.200    24124079.940    98784037.62445
        36.250    24124081.100
  23248878.780   122173695.844 8        45.300    23248875.380    95200304.11745
        36.750
  25238097.400   132627114.188 6        40.800    25238095.380   103345797.83645
        36.950    25238096.220
  25613814.920   134601468.958 5        36.900    25613810.020   104884228.43344
        32.750
  23581399.020   123921083.156 7        42.300    23581397.280    96561880.86246
        39.350    23581398.360
  22204573.820   116685837.474 9        49.550    22204569.540    90924013.29246
        41.000    22204570.400
 19  9 29 16  2 30.0000000  0 10G02G05G06G09G12G13G15G19G25G29
  21116600.720   110968498.695 8        48.750    21116593.660    86468943.61848
        46.250
  20111642.100   105687412.299 9        51.050    20111637.520    82353830.72848
        47.850    20111638.300
  23559470.780   123805834.401 7        43.600    23559470.380    96472080.27146
        40.950    23559471.280
  24627583.180   129418827.323 7        42.450    24627582.280   100845844.63044
        35.150    24627582.720
  24142608.960   126870236.755 7        43.100    24142605.300    98859895.94145
        37.000    24142606.500
  23228739.960   122067865.539 7        43.350    23228736.580    95117838.92644
        32.750
  25215441.340   132508056.533 6        41.200    25215439.420   103253025.68244
        35.950    25215440.240
  25635840.460   134717213.536 5        37.150    25635835.540   104974418.84043
        31.700
  23592567.880   123979775.993 7        43.300    23592566.220    96607615.50545
        38.300    23592567.280
  22189091.140   116604475.334 9        49.250    22189086.820    90860614.23846
        41.850    22189087.680
 19  9 29 16  3  0.0000000  0 10G02G05G06G09G12G13G15G19G25G29
  21119490.860   110983686.233 8        48.400    21119483.800    86480778.04948
        46.300
  20109982.220   105678689.589 9        50.950    20109977.660    82347033.82048
        47.900    20109978.420
  23574111.200   123882770.306 7        44.800    23574110.880    96532030.26646
        39.900    23574111.760
  24644009.000   129505145.574 6        41.600    24644008.120   100913105.58245
        38.750    24644008.540
  24161147.280   126967656.229 7        43.850    24161143.660    98935807.14844
        35.900    24161144.860
  23208631.140   121962192.742 6        39.600    23208627.680    95035496.44644
        33.900
  25192774.380   132388941.356 6        41.250    25192772.520   103160208.76545
        37.300    25192773.320
  25657870.560   134832981.784 5        38.650    25657865.660   105064627.61044
        33.750
  23603810.380   124038855.814 7        43.100    23603808.760    96653651.68846
        39.050    23603809.820
  22173674.880   116523462.443 8        48.750    22173670.540    90797487.34546
        41.700    22173671.380
 19  9 29 16  3 30.0000000  0 10G02G05G06G09G12G13G15G19G25G29
  21122426.260   110999111.817 8        48.350    21122419.200    86492797.98348
        45.900
  20108407.220   105670412.906 9        50.950    20108402.660    82340584.46448
        47.700    20108403.420
  23588777.780   123959843.447 8        45.650    23588777.460    96592087.19345
        38.950    23588778.340
  24660497.420   129591792.806 6        41.700    24660496.520   100980622.90644
        35.650    24660496.940
  24179697.560   127065138.357 7        43.800    24179693.940    99011767.17644
        34.600    24179695.140
  23188552.260   121856678.252 7        42.900    23188548.740    94953277.46744
        35.850
  25170096.500   132269768.786 6        40.100    25170094.720   103067347.08045
        38.050    25170095.500
  25679904.460   134948770.014 5        38.700    25679899.580   105154851.96344
        32.800
  23615125.640   124098317.783 7        42.400    23615124.020    96699985.65146
        39.200    23615125.080
  22158325.280   116442799.772 9        49.550    22158320.940    90734633.32046
        41.200    22158321.780
 19  9 29 16  4  0.0000000  0 10G02G05G06G09G12G13G15G19G25G29
  21125407.860   111014780.039 8        47.900    21125400.800    86505006.96648
        46.400
  20106917.660   105662585.118 9        50.950    20106913.100    82334484.87548
        48.100    20106913.860
  23603471.180   124037057.462 7        44.600    23603470.820    96652253.92145
        38.950    23603471.700
  24677048.740   129678770.361 6        41.250    24677047.820   101048397.56744
        34.750    24677048.260
  24198259.960   127162684.282 7        44.500    24198256.380    99087776.94344
        35.950    24198257.540
  23168504.980   121751329.507 8        45.600    23168501.460    94871187.56545
        37.750
  25147408.820   132150544.969 7        43.750    25147407.060   102974445.57244
        34.300    25147407.820
  25701942.580   135064580.230 5        37.850    25701937.760   105245093.40443
        31.700
  23626513.780   124158162.889 6        41.650    23626512.160    96746618.15046
        40.250    23626513.240
  22143043.560   116362493.710 9        49.950    22143039.180    90672057.16146
        41.550    22143040.040
 19  9 29 16  4 30.0000000  0 11G02G05G06G07G09G12G13G15G19G25G29
  21128435.340   111030689.630 8        48.650    21128428.300    86517404.05448
        45.100
  20105512.960   105655203.330 9        51.300    20105508.420    82328732.83048
        47.750    20105509.160
  23618191.020   124114410.375 7        44.750    23618190.620    96712528.89245
        38.400    23618191.500
  26166537.720   137506084.042 7        43.500    26166535.000   107147583.45743
        29.500    26166535.880
  24693662.040   129766073.824 6        41.350    24693661.120   101116426.22645
        36.300    24693661.540
  24216833.400   127260288.203 8        45.200    24216829.880    99163831.88245
        36.250    24216831.000
  23148489.500   121646147.668 8        45.850    23148485.980    94789227.73145
        38.850
  25124711.560   132031270.720 7        43.000    25124709.840   102881504.69344
        34.500    25124710.600
  25723984.120   135180408.727 5        37.150    25723979.360   105335349.15044
        33.850
  23637973.940   124218386.544 7        42.200    23637972.320    96793545.64545
        38.300    23637973.420
  22127829.840   116282544.945 9        49.800    22127825.400    90609759.43146
        41.250    22127826.260
 19  9 29 16  5  0.0000000  0 10G02G05G06G09G12G13G15G19G25G29
  21131509.240   111046843.128 8        48.300    21131502.220    86529991.18548
        45.600
  20104193.480   105648269.419 9        51.300    20104188.960    82323329.78048
        47.950    20104189.680
  23632937.600   124191903.987 7        44.400    23632937.160    96772913.45945
        37.900    23632938.060
  24710337.260   129853702.638 6        41.250    24710336.360   101184708.36245
        36.250    24710336.780
  24235417.740   127357949.364 8        45.750    24235414.240    99239931.45444
        35.150    24235415.340
  23128506.740   121541137.498 7        43.250    23128503.180    94707401.64544
        35.100
  25102005.540   131911950.499 7        42.550    25102003.880   102788528.02744
        34.650    25102004.600
  25746029.120   135296255.251 5        37.750    25746024.420   105425618.90244
        35.200
  23649505.960   124278987.915 7        42.600    23649504.340    96840767.44745
        38.650    23649505.480
  22112685.020   116202958.363 9        49.100    22112680.560    90547743.91146
        41.300    22112681.420
 19  9 29 16  5 30.0000000  0 11G02G05G06G07G09G12G13G15G19G25G29
  21134628.580   111063235.470 8        48.400    21134621.560    86542764.43148
        45.200
  20102957.780   105641775.761 9        51.150    20102953.260    82318269.79848
        48.050    20102953.980
  23647709.760   124269532.088 7        44.750    23647709.300    96833402.81545
        38.550    23647710.220
  26147903.880   137408165.437 6        40.650    26147899.800   107071279.25943
        29.000    26147902.300
  24727072.740   129941648.248 6        40.700    24727071.840   101253237.39844
        35.550    24727072.280
  24254011.340   127455659.034 8        45.450    24254007.820    99316068.82044
        35.550    24254008.920
  23108556.160   121436296.673 6        39.700    23108552.560    94625707.56744
        32.150
  25079290.060   131792580.611 6        41.700    25079288.480   102695512.62344
        33.700    25079289.180
  25768076.120   135412112.518 4        35.100    25768071.460   105515897.09444
        33.400
  23661108.220   124339958.247 6        41.650    23661106.620    96888276.76046
        39.750    23661107.760
  22097608.420   116123730.438 8        48.750    22097603.940    90486007.89547
        42.500    22097604.800
 19  9 29 16  6  0.0000000  0 11G02G05G06G07G09G12G13G15G19G25G29
  21137793.920   111079869.549 8        48.450    21137786.900    86555726.04548
        45.350
  20101806.240   105635724.220 9        51.100    20101801.700    82313554.30748
        47.650    20101802.420
  23662507.920   124347296.876 8        45.250    23662507.420    96893998.72646
        39.450    23662508.360
  26138660.240   137359587.908 7        43.600    26138656.900   107033426.64143
        29.350    26138658.120
  24743868.500   130029910.504 6        41.600    24743867.600   101322013.14443
        31.900    24743868.040
  24272613.960   127553416.018 7        44.750    24272610.380    99392243.06044
        35.750    24272611.460
  23088638.720   121331630.117 7        44.750    23088635.140    94544149.20544
        33.750
  25056566.040   131673166.041 7        42.500    25056564.520   102602462.39144
        32.900    25056565.240
  25790125.240   135527981.027 5        38.950    25790120.620   105606184.08245
        36.700
  23672780.580   124401297.050 6        41.950    23672779.020    96936073.23446
        39.100    23672780.180
  22082601.040   116044866.339 9        49.050    22082596.560    90424555.38546
        41.650    22082597.440
 19  9 29 16  6 30.0000000  0 11G02G05G06G07G09G12G13G15G19G25G29
  21141005.700   111096747.530 8        48.650    21140998.660    86568877.71448
        45.250
  20100739.060   105630116.038 9        51.000    20100734.540    82309184.27948
        47.650    20100735.260
  23677332.400   124425199.789 7        44.950    23677331.920    96954702.25846
        39.200    23677332.840
  26129465.880   137311269.394 6        41.550    26129462.060   106995775.86343
        28.250    26129463.260
  24760724.340   130118488.399 6        41.250    24760723.400   101391034.85244
        34.950    24760723.860
  24291225.380   127651219.107 7        43.750    24291221.780    99468453.16745
        36.200    24291222.860
  23068755.380   121227142.728 8        46.750    23068751.780    94462730.46345
        36.250
  25033834.260   131553710.695 6        40.650    25033832.820   102509380.39845
        36.300    25033833.560
  25812176.380   135643860.132 5        36.850    25812171.800   105696479.36743
        31.450
  23684522.840   124463003.093 7        43.350    23684521.340    96984155.82445
        38.100    23684522.460
  22067663.700   115966370.311 9        49.700    22067659.280    90363389.66446
        41.600    22067660.140
 19  9 29 16  7  0.0000000  0 11G02G05G06G07G09G12G13G15G19G25G29
  21144264.020   111113870.091 9        49.050    21144256.980    86582219.96548
        45.600
  20099756.000   105624949.968 9        51.000    20099751.480    82305158.75748
        47.750    20099752.220
  23692183.080   124503240.347 7        43.300    23692182.600    97015513.03445
        38.900    23692183.520
  26120321.020   137263211.574 5        37.250    26120316.960   106958328.24642
        26.700    26120318.040
  24777639.720   130207379.137 6        41.200    24777638.760   101460300.32344
        34.450    24777639.240
  24309844.860   127749064.832 7        42.250    24309841.260    99544696.53945
        37.550    24309842.320
  23048906.720   121122837.465 8        46.400    23048903.080    94381453.66845
        37.200
  25011095.160   131434216.809 6        41.550    25011093.800   102416268.35045
        37.000    25011094.540
  25834229.160   135759748.273 6        39.900    25834224.600   105786781.79644
        34.750
  23696334.440   124525073.286 7        43.050    23696333.000    97032522.17146
        39.300    23696334.120
  22052796.920   115888244.823 9        49.800    22052792.500    90302512.66046
        41.600    22052793.360
 19  9 29 16  7 30.0000000  0 11G02G05G06G07G09G12G13G15G19G25G29
  21147569.380   111131239.854 8        48.950    21147562.320    86595754.84448
        45.700
  20098857.300   105620227.249 9        51.000    20098852.780    82301478.71448
        47.750    20098853.520
  23707060.300   124581420.561 7        42.750    23707059.860    97076432.60146
        39.250    23707060.780
  26111226.680   137215420.166 5        36.550
                  26111224.320
  24794614.580   130296582.287 6        40.550    24794613.560   101529809.23845
        36.600    24794614.040
  24328472.180   127846951.983 7        44.250    24328468.600    99620972.20244
        35.600    24328469.660
  23029093.780   121018719.778 7        43.050    23029090.080    94300323.04645
        37.400
  24988349.600   131314688.852 6        41.400    24988348.300   102323129.75045
        37.200    24988349.060
  25856283.640   135875645.468 5        38.300    25856279.120   105877091.33444
        35.600
  23708215.180   124587506.906 7        42.000    23708213.840    97081171.71945
        38.000    23708214.920
  22038001.540   115810494.616 8        48.900    22037997.120    90241928.09147
        42.300    22037997.980
 19  9 29 16  8  0.0000000  0 11G02G05G06G07G09G12G13G15G19G25G29
  21150921.420   111148854.678 8        48.750    21150914.300    86609480.67248
        45.050
  20098042.240   105615944.145 9        50.800    20098037.760    82298141.23748
        47.500    20098038.480
  23721963.420   124659737.345 7        44.300    23721963.080    97137458.63245
        38.600    23721964.020
  26102182.580   137167895.021 5        37.350    26102179.720   106884062.33942
        27.800    26102180.440
  24811647.840   130386092.447 6        40.200    24811646.800   101599557.37745
        36.350    24811647.280
  24347106.380   127944875.263 7        42.750    24347102.880    99697275.99345
        37.650    24347103.920
  23009316.440   120914789.563 7        42.400    23009312.720    94219338.55645
        36.650
  24965597.540   131195126.679 7        42.350    24965596.260   102229964.49044
        33.750    24965597.040
  25878339.060   135991547.469 4        34.600    25878334.600   105967404.58243
        31.300
  23720164.000   124650298.258 7        42.100    23720162.700    97130100.01746
        39.300    23720163.760
  22023277.520   115733119.479 9        49.000    22023273.100    90181635.79147
        42.050    22023273.960
 19  9 29 16  8 30.0000000  0 11G02G05G06G07G09G12G13G15G19G25G29
  21154319.700   111166712.560 9        49.050    21154312.540    86623395.91148
        45.250
  20097310.120   105612096.947 9        50.800    20097305.660    82295143.41648
        47.750    20097306.380
  23736891.980   124738187.605 7        44.800    23736891.720    97198588.65545
        38.700    23736892.660
  26093189.040   137120634.739 6        39.250    26093186.160   106847236.13244
        32.550    26093187.200
  24828738.500   130475904.143 6        40.250    24828737.440   101669540.46844
        35.550    24828737.900
  24365746.260   128042828.223 7        43.000    24365742.840    99773602.88845
        38.050    24365743.840
  22989574.920   120811047.254 8        45.100    22989571.200    94138500.40344
        35.350
  24942838.900   131075529.923 6        41.950    24942837.660   102136772.29644
        35.500    24942838.440
  25900394.740   136107489.850 4        35.750    25900393.180   106057795.15942
        26.100
  23732179.800   124713441.606 7        42.400    23732178.560    97179302.57246
        39.650    23732179.580
  22008624.820   115656119.141 9        49.300    22008620.400    90121635.53646
        40.950    22008621.260
 19  9 29 16  9  0.0000000  0 11G02G05G06G07G09G12G13G15G19G25G29
  21157765.120   111184818.065 8        48.850    21157757.900    86637504.08048
        45.750
  20096661.520   105608688.594 9        50.950    20096657.060    82292487.54548
        47.750    20096657.800
  23751846.720   124816775.228 7        42.450    23751846.540    97259825.72546
        40.150    23751847.460
  26084247.360   137073645.673 5        36.850    26084244.540   106810621.26243
        30.300    26084245.480
  24845886.780   130566018.778 6        40.150    24845885.740   101739759.62644
        33.900    24845886.180
  24384391.920   128140811.801 7        43.200    24384388.620    99849953.69046
        39.400    24384389.580
  22969870.600   120707500.054 8        46.050    22969866.860    94057814.24345
        37.550
  24920074.920   130955905.000 6        41.100    24920073.660   102043558.12645
        38.950    24920074.460
  25922451.180   136223410.68315        37.400    25922449.520   106148102.64354
        33.900
  23744262.820   124776938.094 7        42.600    23744261.580    97228780.30846
        40.100    23744262.600
  21994044.800   115579500.569 8        48.950    21994040.360    90061932.76146
        41.550    21994041.240
 19  9 29 16  9 30.0000000  0 11G02G05G06G07G09G12G13G15G19G25G29
  21161258.060   111203173.339 9        49.000    21161250.780    86651806.89348
        45.400
  20096096.620   105605720.122 9        51.150    20096092.160    82290174.46048
        47.650    20096092.900
  23766827.820   124895501.408 7        42.250    23766827.700    97321170.73346
        39.500    23766828.620
  26075358.080   137026931.813 5        36.500    26075355.220   106774220.80944
        32.550    26075356.220
  24863092.500   130656435.269 6        40.350    24863091.440   101810214.00944
        35.200    24863091.860
  24403043.200   128238824.808 7        44.650    24403040.040    99926327.40245
        37.050    24403040.940
  22950204.200   120604152.332 7        44.750    22950200.440    93977283.57945
        38.950
  24897306.320   130836255.882 6        41.800    24897305.040   101950325.17644
        34.000    24897305.860
  25944507.000   136339303.882 5        36.000    25944505.780   106238411.00143
        31.250
  23756412.760   124840786.226 7        42.250    23756411.520    97278532.06846
        39.750    23756412.540
  21979538.060   115503267.399 9        49.250    21979533.620    90002530.32147
        42.600    21979534.500
 19  9 29 16 10  0.0000000  0 11G02G05G06G07G09G12G13G15G19G25G29
  21164798.580   111221778.684 8        48.800    21164791.280    86666304.55748
        45.500
  20095615.200   105603190.282 9        51.050    20095610.740    82288203.15648
        47.750    20095611.500
  23781835.220   124974365.864 8        45.250    23781835.140    97382623.50145
        38.550    23781836.080
  26066521.400   136980495.151 6        39.400    26066518.580   106738036.35043
        31.650    26066519.660
  24880355.120   130747150.802 6        40.650    24880354.060   101880901.40744
        33.200    24880354.480
  24421699.400   128336863.732 6        41.100    24421696.380   100002721.34246
        39.700    24421697.200
  22930576.320   120501007.208 7        43.250    22930572.560    93896910.83546
        40.050
  24874533.600   130716585.188 7        42.700    24874532.320   101857075.37744
        33.350    24874533.160
  25966563.260   136455211.998 6        41.050    25966562.860   106328728.96845
        38.600
  23768629.020   124904982.995 7        42.850    23768627.760    97328555.50445
        38.400    23768628.820
  21965105.240   115427422.531 9        49.650    21965100.820    89943430.43447
        43.150    21965101.700
 19  9 29 16 10 30.0000000  0 11G02G05G06G07G09G12G13G15G19G25G29
  21168385.860   111240629.768 8        48.700    21168378.540    86680993.70348
        45.600
  20095216.120   105601092.953 9        50.900    20095211.660    82286568.86148
        47.550    20095212.400
  23796867.880   125053362.926 8        45.300    23796867.760    97444179.61846
        39.200    23796868.740
  26057736.820   136934332.560 6        39.000    26057734.000   106702065.56144
        32.000    26057735.180
  24897673.180   130838157.530 6        40.550    24897672.100   101951815.69345
        36.350    24897672.520
  24440358.920   128434919.819 6        41.450    24440356.020   100079128.59145
        38.200    24440356.780
  22910986.520   120398062.587 7        44.900    22910982.840    93816694.36245
        37.800
  24851756.100   130596889.539 7        43.400    24851754.820   101763806.17744
        33.950    24851755.680
  25988618.740   136571113.452 4        35.000    25988617.860   106419042.88544
        32.150
  23780910.100   124969520.175 7        42.700    23780908.800    97378844.15445
        38.000    23780909.880
  21950745.780   115351963.109 9        49.950    21950741.360    89884630.89747
        42.750    21950742.240
 19  9 29 16 11  0.0000000  0 11G02G05G06G07G09G12G13G15G19G25G29
  21172019.840   111259726.367 9        49.100    21172012.500    86695874.16848
        45.300
  20094899.000   105599426.494 9        50.950    20094894.560    82285270.31448
        47.500    20094895.300
  23811925.680   125132491.810 7        44.600    23811925.520    97505838.45645
        38.950    23811926.500
  26049004.920   136888446.071 6        40.300    26049002.020   106666309.87043
        29.600    26049003.260
  24915045.980   130929452.165 6        40.500    24915044.880   102022954.37244
        35.500    24915045.280
  24459021.100   128532989.930 7        43.100    24459018.320   100155546.75644
        35.550    24459019.040
  22891435.380   120295320.858 8        46.300    22891431.800    93736635.92745
        37.150
  24828974.360   130477171.224 7        43.700    24828973.120   101670519.21543
        31.500    24828973.960
  26010672.640   136687007.642 5        38.650    26010672.260   106509352.54044
        35.650
  23793255.200   125034394.090 7        42.750    23793253.900    97429395.22645
        37.450    23793255.020
  21936460.020   115276890.910 9        49.700    21936455.580    89826133.08046
        41.550    21936456.480
 19  9 29 16 11 30.0000000  0 10G02G05G06G07G09G12G13G15G25G29
  21175701.960   111279075.823 8        48.950    21175694.620    86710951.65148
        45.300
  20094664.940   105598196.622 9        50.800    20094660.540    82284311.96948
        47.750    20094661.260
  23827009.840   125211758.994 7        43.600    23827009.620    97567605.02745
        37.850    23827010.600
  26040327.300   136842844.373 7        42.850    26040324.360   106630776.08444
        34.750    26040325.600
  24932474.400   131021038.831 6        40.100    24932473.300   102094320.54244
        32.750    24932473.700
  24477686.560   128631077.392 7        43.600    24477683.880   100231978.46544
        35.700    24477684.560
  22871924.740   120192791.529 8        45.850    22871921.200    93656742.91544
        34.550
  24806190.000   130357439.106 7        42.750    24806188.760   101577221.55344
        34.500    24806189.600
  23805665.140   125099608.597 7        42.900    23805663.820    97480211.69645
        38.250    23805664.960
  21922249.780   115202215.623 9        49.050    21922245.320    89767944.55546
        41.050    21922246.220
 19  9 29 16 12  0.0000000  0 10G02G05G06G07G09G12G13G15G25G29
  21179432.120   111298677.959 8        48.100    21179424.780    86726226.05148
        45.400
  20094513.600   105597401.424 9        50.750    20094509.220    82283692.34348
        47.750    20094509.940
  23842120.120   125291163.494 7        43.150    23842119.900    97629478.55545
        38.750    23842120.860
  26031704.020   136797528.800 5        38.950    26031701.140   106595465.27143
        31.000    26031702.280
  24949957.700   131112914.040 6        39.600    24949956.600   102165911.58845
        36.050    24949957.000
  24496354.580   128729178.437 7        43.100    24496351.920   100308420.80344
        33.200    24496352.580
  22852454.980   120090477.111 7        44.050    22852451.380    93577017.40345
        36.300
  24783403.380   130237695.153 7        43.250    24783402.160   101483914.68545
        36.650    24783402.980
  23818139.160   125165159.922 7        42.450    23818137.860    97531290.62345
        38.100    23818139.000
  21908115.380   115127938.887 8        48.850    21908110.880    89710066.58746
        41.550    21908111.820
 19  9 29 16 12 30.0000000  0 10G02G05G06G07G09G12G13G15G25G29
  21183210.260   111318532.146 8        47.950    21183202.900    86741696.84248
        45.200
  20094444.640   105597039.105 9        50.900    20094440.280    82283410.01748
        47.700    20094440.980
  23857256.100   125370703.385 7        44.050    23857255.900    97691457.65445
        37.600    23857256.840
  26023135.340   136752500.292 5        38.950    26023132.540   106560378.20343
        29.450    26023133.600
  24967495.080   131205073.620 6        40.600    24967494.000   102237724.22744
        33.000    24967494.380
  24515024.320   128827288.506 7        43.750    24515021.720   100384870.14244
        35.500    24515022.360
  22833026.440   119988379.557 7        44.100    22833022.740    93497460.94145
        38.050
  24760614.760   130117940.115 7        43.500    24760613.520   101390599.08444
        34.800    24760614.360
  23830676.400   125231043.521 7        42.750    23830675.100    97582628.46945
        36.050    23830676.240
  21894056.980   115054061.565 9        49.200    21894052.440    89652499.84646
        41.650    21894053.400
 19  9 29 16 13  0.0000000  0 10G02G05G06G07G09G12G13G15G25G29
  21187035.860   111338635.896 8        47.750    21187028.520    86757362.09848
        45.400
  20094457.300   105597105.568 9        50.800    20094452.940    82283461.79648
        47.850    20094453.640
  23872417.320   125450375.785 7        44.350    23872417.080    97753540.02545
        37.200    23872418.000
  26014621.200   136707758.490 5        38.900    26014619.160   106525515.54343
        28.900    26014619.460
  24985085.620   131297512.240 6        40.350    24985084.540   102309754.26744
        34.500    24985084.920
  24533694.640   128925401.682 6        41.150    24533692.060   100461321.93845
        37.350    24533692.700
  22813639.100   119886498.673 8        45.400    22813635.360    93418073.31345
        37.800
  24737823.980   129998173.926 7        43.050    24737822.720   101297274.83245
        36.950    24737823.560
  23843275.820   125297253.741 7        42.750    23843274.540    97634220.80045
        38.750    23843275.660
  21880074.540   114980583.630 9        49.750    21880069.960    89595244.32347
        42.400    21880070.960
 19  9 29 16 13 30.0000000  0 10G02G05G06G07G09G12G13G15G25G29
  21190909.600   111358992.684 8        47.900    21190902.300    86773224.52248
        45.350
  20094551.840   105597602.401 9        50.750    20094547.480    82283848.94248
        47.700    20094548.200
  23887604.200   125530182.963 7        42.550    23887603.880    97815727.39545
        37.650    23887604.820
  26006162.420   136663307.555 6        40.800    26006160.380   106490878.52143
        28.950    26006160.620
  25002729.240   131390229.826 6        41.000    25002728.160   102382001.70044
        35.100    25002728.540
  24552365.520   129023517.750 7        42.850    24552362.980   100537775.97144
        35.150    24552363.640
  22794294.060   119784840.099 8        46.050    22794290.300    93338858.91145
        37.650
  24715032.000   129878401.494 7        42.200    24715030.720   101203945.70545
        36.000    24715031.580
  23855937.340   125363790.144 7        42.850    23855936.060    97686067.28845
        38.500    23855937.160
  21866169.140   114907510.313 9        50.000    21866164.540    89538304.06847
        42.700    21866165.560
 19  9 29 16 14  0.0000000  0 10G02G05G06G07G09G12G13G15G25G29
  21194831.680   111379603.540 8        47.950    21194824.420    86789284.91548
        45.450
  20094728.220   105598529.360 9        50.850    20094723.860    82284571.24848
        47.250    20094724.580
  23902816.800   125610125.268 6        41.150    23902816.440    97878019.98546
        40.050    23902817.360
  25997759.580   136619150.365 5        38.150    25997757.580   106456470.44643
        29.050    25997757.740
  25020425.540   131483224.251 6        39.750    25020424.480   102454464.83845
        36.700    25020424.840
  24571036.460   129121633.971 7        42.800    24571033.960   100614230.10745
        36.700    24571034.620
  22774992.160   119683407.809 7        44.650    22774988.320    93259820.77145
        36.750
  24692239.440   129758625.925 7        43.650    24692238.120   101110614.16444
        35.100    24692239.000
  23868660.440   125430650.247 6        41.600    23868659.220    97738166.03046
        39.550    23868660.280
  21852341.360   114834844.820 9        49.350    21852336.720    89481681.60847
        42.850    21852337.760
 19  9 29 16 14 30.0000000  0 10G02G05G06G07G09G12G13G15G25G29
  21198802.420   111400470.028 8        48.050    21198795.200    86805544.48948
        45.650
  20094986.300   105599885.621 9        50.900    20094981.940    82285628.07748
        47.550    20094982.660
  23918055.120   125690203.102 7        43.550    23918054.780    97940418.21646
        41.050    23918055.720
  25989413.220   136575290.141 5        36.300    25989411.180   106422293.60942
        26.000    25989411.340
  25038174.220   131576493.728 6        40.100    25038173.160   102527142.26844
        35.000    25038173.540
  24589707.020   129219748.068 7        43.250    24589704.580   100690682.54445
        37.000    24589705.240
  22755734.040   119582205.695 7        43.200    22755730.140    93180961.97745
        38.500
  24669446.920   129638850.450 7        44.050    24669445.560   101017282.62145
        36.300    24669446.460
  23881444.720   125497831.795 7        43.200    23881443.520    97790515.25246
        39.750    23881444.560
  21838591.740   114762590.260 9        49.400    21838587.120    89425379.36847
        43.650    21838588.160
 19  9 29 16 15  0.0000000  0 10G02G05G06G07G09G12G13G15G25G29
  21202821.580   111421590.977 8        48.300    21202814.400    86822002.36548
        45.150
  20095325.560   105601668.537 9        51.000    20095321.200    82287017.36248
        47.300    20095321.940
  23933318.820   125770414.416 8        45.100    23933318.520    98002920.50446
        39.450    23933319.460
  25981123.440   136531727.240 5        37.600    25981121.400   106388348.52443
        29.450    25981121.580
  25055974.340   131670033.749 6        39.900    25055973.320   102600030.53644
        35.650    25055973.700
  24608376.240   129317855.295 7        42.750    24608373.840   100767129.67945
        36.400    24608374.480
  22736519.800   119481234.681 7        42.550    22736515.860    93102283.30845
        37.850
  24646654.580   129519075.947 7        42.650    24646653.160   100923951.88945
        37.600    24646654.100
  23894289.300   125565330.082 7        43.400    23894288.140    97843111.28946
        39.200    23894289.140
  21824920.500   114690747.535 9        49.100    21824915.920    89369398.03647
        42.600    21824916.960
 19  9 29 16 15 30.0000000  0 10G02G05G06G07G09G12G13G15G25G29
  21206889.140   111442966.278 8        48.200    21206882.000    86838658.42348
        45.750
  20095745.740   105603876.640 9        50.850    20095741.380    82288737.96648
        47.500    20095742.120
  23948607.800   125850758.219 7        44.500    23948607.500    98065526.05346
        40.700    23948608.440
  25972890.460   136488463.095 6        40.200    25972888.400   106354636.2904
        20.800    25972888.640
  25073825.280   131763840.951 6        39.350    25073824.320   102673126.99144
        35.200    25073824.700
  24627043.480   129415952.017 7        43.250    24627041.100   100843568.62144
        35.500    24627041.740
  22717349.980   119380497.225 7        44.750    22717346.040    93023786.64445
        38.700
  24623862.720   129399304.170 7        44.600    24623861.260   100830623.27644
        35.150    24623862.240
  23907193.400   125633141.241 7        43.400    23907192.300    97895951.10845
        38.200    23907193.260
  21811327.940   114619318.271 9        49.500    21811323.400    89313738.88447
        42.550    21811324.420
 19  9 29 16 16  0.0000000  0 10G02G05G06G07G09G12G13G15G25G29
  21211005.400   111464597.504 8        48.350    21210998.300    86855513.92047
        44.950
  20096246.960   105606510.653 9        50.800    20096242.580    82290790.44148
        47.100    20096243.340
  23963922.240   125931235.666 7        43.200    23963921.940    98128235.69946
        40.900    23963922.880
  25964715.000   136445500.994 6        39.200    25964712.860   106321159.44043
        29.450    25964713.140
  25091726.820   131857913.973 6        39.750    25091725.880   102746430.58644
        34.000    25091726.300
  24645708.360   129514036.334 7        42.000    24645706.020   100919997.88845
        36.750    24645706.660
  22698225.480   119279997.775 8        46.600    22698221.600    92945475.41746
        39.250
  24601072.120   129279538.764 7        43.550    24601070.660   100737299.58944
        35.150    24601071.660
  23920156.720   125701263.651 7        42.550    23920155.660    97949033.45446
        39.400    23920156.600
  21797814.820   114548306.614 9        50.300    21797810.340    89258405.12947
        42.050    21797811.360
 19  9 29 16 16 30.0000000  0 11G02G05G06G07G09G12G13G15G25G29G30
  21215170.680   111486486.350 8        48.200    21215163.620    86872570.16048
        45.550
  20096829.080   105609569.790 9        50.800    20096824.700    82293174.18748
        46.950    20096825.460
  23979262.160   126011847.212 7        42.900    23979261.960    98191049.81646
        40.950    23979262.880
  25956597.720   136402844.334 5        38.450    25956595.600   106287920.45644
        34.350    25956595.880
  25109678.620   131952251.061 6        39.750    25109677.720   102819939.95244
        34.950    25109678.120
  24664370.460   129612105.956 6        41.900    24664368.140   100996415.70545
        36.100    24664368.780
  22679147.040   119179740.075 8        46.650    22679143.200    92867352.57746
        39.250
  24578283.320   129159783.216 7        44.550    24578281.800   100643983.66244
        35.800    24578282.820
  23933178.780   125769694.980 7        42.600    23933177.780    98002356.55945
        37.350    23933178.720
  21784381.820   114477715.744 9        49.900    21784377.360    89203399.27047
        42.100    21784378.360
  25896973.300   136089511.609 6        39.700    25896974.100   106043778.46445
        36.200    25896973.920
 19  9 29 16 17  0.0000000  0 10G02G05G06G07G09G12G13G15G25G29
  21219384.740   111508631.327 8        48.050    21219377.720    86889825.96048
        45.250
  20097491.520   105613051.051 9        50.800    20097487.160    82295886.85248
        47.150    20097487.920
  23994627.080   126092590.277 7        44.550    23994626.980    98253966.45446
        39.800    23994627.880
  25948538.360   136360492.316 6        39.550    25948536.240   106254918.84943
        29.500    25948536.540
  25127679.720   132046847.349 6        40.150    25127678.840   102893651.33144
        34.900    25127679.240
  24683028.800   129710155.819 6        41.950    24683026.540   101072818.08744
        35.150    24683027.160
  22660114.840   119079725.218 7        44.700    22660111.020    92789418.94745
        38.150
  24555496.480   129040037.889 7        43.650    24555494.940   100550675.65244
        34.300    24555495.960
  23946258.680   125838430.048 7        42.950    23946257.700    98055916.33645
        38.550    23946258.620
  21771028.960   114407545.868 9        50.100    21771024.500    89148721.43246
        41.800    21771025.480
 19  9 29 16 17 30.0000000  0 11G02G05G06G07G09G12G13G15G25G29G30
  21223648.340   111531036.825 8        48.100    21223641.360    86907284.78748
        45.300
  20098234.760   105616956.872 9        50.850    20098230.400    82298930.34848
        47.500    20098231.160
  24010017.780   126173468.547 7        44.250    24010017.720    98316988.44946
        40.200    24010018.580
  25940538.180   136318451.350 6        39.800    25940536.020   106222159.77343
        29.250    25940536.360
  25145730.400   132141704.039 6        39.050    25145729.520   102967565.60044
        35.950    25145729.920
  24701683.540   129808186.837 7        42.400    24701681.320   101149205.82644
        35.400    24701681.920
  22641130.140   118979960.064 7        44.000    22641126.320    92711679.93345
        36.950
  24532712.860   128920309.305 7        42.400    24532711.280   100457380.67445
        38.600    24532712.340
  23959396.540   125907469.661 7        43.550    23959395.580    98109713.38445
        37.750    23959396.480
  21757757.520   114337803.651 9        49.700    21757753.040    89094376.83447
        42.350    21757754.000
  25871956.260   135958048.544 4        33.950    25871958.000   105941354.00944
        33.350    25871958.820
 19  9 29 16 18  0.0000000  0 11G02G05G06G07G09G12G13G15G25G29G30
  21227960.400   111553696.919 8        48.200    21227953.460    86924942.00147
        44.850
  20099057.340   105621279.672 9        50.750    20099053.000    82302298.76848
        47.450    20099053.760
  24025432.980   126254475.499 7        43.300    24025432.900    98380110.70746
        39.550    24025433.780
  25932596.460   136276717.558 6        40.900    25932594.180   106189640.04842
        27.800    25932594.560
  25163828.900   132236812.199 5        38.900    25163828.060   103041675.81344
        35.800    25163828.480
  24720332.880   129906189.641 7        43.650    24720330.680   101225571.58644
        34.050    24720331.300
  22622192.360   118880441.506 8        45.550    22622188.540    92634133.02745
        37.350
  24509931.680   128800593.672 7        44.550    24509930.100   100364095.83544
        34.950    24509931.160
  23972590.620   125976804.583 7        42.650    23972589.640    98163740.53545
        37.800    23972590.540
  21744566.660   114268485.151 9        49.350    21744562.160    89040362.43847
        42.950    21744563.100
  25859479.500   135892472.249 7        44.200    25859479.700   105890240.59445
        36.350    25859480.280
 19  9 29 16 18 30.0000000  0 11G02G05G06G07G09G12G13G15G25G29G30
  21232322.460   111576619.628 8        48.450    21232315.520    86942803.84048
        45.250
  20099960.580   105626026.160 9        50.650    20099956.240    82305997.30948
        47.650    20099957.000
  24040873.920   126335617.921 7        43.550    24040873.840    98443338.48246
        39.200    24040874.740
  25924714.960   136235299.728 6        39.950    25924712.640   106157366.36543
        29.550    25924713.020
  25181976.080   132332176.184 5        38.150    25181975.240   103115985.40244
        34.700    25181975.680
  24738977.700   130004168.482 7        42.950    24738975.500   101301918.66544
        34.800    24738976.120
  22603303.440   118781179.516 8        46.450    22603299.580    92556786.02545
        38.350
  24487154.760   128680900.507 7        43.400    24487153.160   100270828.48345
        36.350    24487154.240
  23985841.600   126046438.709 6        41.550    23985840.600    98218000.82545
        38.100    23985841.520
  21731458.260   114199600.157 9        49.600    21731453.780    88986685.84047
        42.900    21731454.720
  25847022.240   135827003.953 6        40.250    25847021.760   105839226.23344
        35.750    25847022.260
 19  9 29 16 19  0.0000000  0 11G02G05G06G07G09G12G13G15G25G29G30
  21236734.140   111599803.055 8        48.000    21236727.220    86960868.83248
        45.450
  20100943.720   105631192.669 9        50.800    20100939.400    82310023.15448
        47.600    20100940.160
  24056340.080   126416893.043 7        44.150    24056340.020    98506669.70146
        39.800    24056340.920
  25916893.500   136194197.741 5        37.500    25916891.220   106125338.86743
        31.800    25916891.560
  25200171.040   132427791.121 5        38.600    25200170.220   103190490.49844
        34.650    25200170.660
  24757616.900   130102117.711 6        41.050    24757614.680   101378242.66845
        37.450    24757615.280
  22584463.500   118682174.895 8        45.550    22584459.580    92479639.60845
        38.650
  24464382.120   128561229.820 7        43.500    24464380.500   100177578.67945
        37.900    24464381.600
  23999148.460   126116366.661 6        39.900    23999147.420    98272490.08945
        38.550    23999148.380
  21718432.340   114131148.422 9        50.000    21718427.860    88933346.82847
        42.750    21718428.800
  25834584.660   135761643.811 5        38.550    25834583.880   105788296.18644
        35.050    25834584.640
 19  9 29 16 19 30.0000000  0 11G02G05G06G07G09G12G13G15G25G29G30
  21241194.260   111623241.021 8        48.650    21241187.340    86979132.17947
        44.750
  20102005.320   105636771.422 9        51.050    20102001.000    82314370.23148
        47.600    20102001.760
  24071830.160   126498293.811 7        43.600    24071830.120    98570098.84445
        38.650    24071831.000
  25909131.220   136153406.816 6        40.300    25909129.020   106093553.74543
        28.550    25909129.320
  25218411.920   132523647.477 5        38.200    25218411.160   103265183.70744
        34.100    25218411.600
  24776248.680   130200027.892 7        42.700    24776246.440   101454536.24245
        36.550    24776247.040
  22565671.840   118583424.181 7        44.100    22565667.880    92402691.05746
        39.400
  24441612.980   128441577.595 7        44.250    24441611.320   100084343.25445
        37.300    24441612.440
  24012509.340   126186578.557 6        39.850    24012508.260    98327200.61445
        38.300    24012509.260
  21705488.120   114063126.037 9        50.200    21705483.640    88880342.37447
        42.650    21705484.560
  25822166.860   135696388.591 7        43.950    25822165.840   105737447.98545
        36.000    25822166.780
 19  9 29 16 20  0.0000000  0 11G02G05G06G07G09G12G13G15G25G29G30
  21245704.640   111646942.978 8        48.500    21245697.720    86997601.22548
        45.600
  20103146.800   105642769.874 9        50.900    20103142.460    82319044.34748
        47.800    20103143.240
  24087345.820   126579828.823 6        41.900    24087345.760    98633632.61446
        39.000    24087346.640
  25901430.320   136112938.387 6        41.800    25901428.080   106062019.90844
        32.250    25901428.420
  25236700.700   132619756.395 5        37.650    25236699.960   103340060.87144
        35.100    25236701.240
  24794874.080   130297904.730 7        42.200    24794871.840   101530803.87545
        36.150    24794872.420
  22546930.620   118484938.792 7        44.900    22546926.640    92325949.28746
        39.250
  24418849.500   128321955.028 7        43.700    24418847.780    99991130.96745
        36.750    24418848.920
  24025925.300   126257080.118 6        41.100    24025924.160    98382136.87945
        37.150    24025925.220
  21692627.720   113995544.124 9        50.550    21692623.220    88827681.15147
        42.600    21692624.140
  25809771.120   135631248.711 5        38.150    25809769.840   105686689.66643
        30.400    25809770.900
 19  9 29 16 20 30.0000000  0 11G02G05G06G07G09G12G13G15G25G29G30
  21250265.020   111670907.763 8        48.700    21250258.080    87016275.06747
        44.850
  20104367.600   105649185.114 9        50.900    20104363.220    82324043.23148
        47.800    20104364.020
  24102886.600   126661495.979 6        41.900    24102886.560    98697269.24446
        39.950    24102887.460
  25893790.720   136072792.007 6        39.250    25893788.400   106030737.04244
        34.000    25893788.760
  25255034.860   132716103.597 5        38.050    25255034.000   103415136.57044
        33.950    25255034.660
  24813492.200   130395743.296 7        42.650    24813489.960   101607041.68045
        36.400    24813490.540
  22528240.240   118386720.253 8        47.150    22528236.260    92249415.39945
        37.550
  24396091.920   128202363.464 7        44.350    24396090.160    99897942.84444
        34.950    24396091.300
  24039395.500   126327866.500 7        43.450    24039394.320    98437295.06044
        35.300    24039395.420
  21679851.320   113928403.529 9        50.450    21679846.780    88775363.79647
        42.100    21679847.720
  25797397.560   135566225.596 6        39.400    25797396.160   105636022.32044
        32.000    25797397.300
 19  9 29 16 21  0.0000000  0 11G02G05G06G07G09G12G13G15G25G29G30
  21254875.160   111695134.078 8        48.250    21254868.220    87035152.70947
        44.850
  20105667.200   105656014.508 9        50.800    20105662.820    82329364.83348
        47.550    20105663.620
  24118452.020   126743293.192 7        43.700    24118452.020    98761007.29545
        38.850    24118452.940
  25886212.520   136032968.111 6        39.850    25886210.180   105999705.37144
        32.050    25886210.580
  25273414.580   132812689.454 5        37.850    25273413.960   103490398.24643
        30.850    25273414.280
  24832102.260   130493539.267 7        43.600    24832100.000   101683246.23644
        35.250    24832100.600
  22509600.880   118288769.555 8        47.100    22509596.860    92173090.17444
        34.800
  24373340.280   128082802.936 7        44.300    24373338.500    99804778.90645
        36.900    24373339.600
  24052919.020   126398932.959 7        43.700    24052917.740    98492671.44444
        35.850    24052918.880
  21667159.000   113861704.671 9        50.300    21667154.380    88723390.65746
        41.750    21667155.320
  25785046.340   135501319.940 6        39.800    25785045.020   105585446.51744
        32.650    25785046.140
 19  9 29 16 21 30.0000000  0 11G02G05G06G07G09G12G13G15G25G29G30
  21259535.380   111719623.484 8        48.400    21259528.420    87054235.35148
        45.050
  20107045.520   105663257.626 9        50.650    20107041.160    82335008.80948
        47.500    20107041.960
  24134042.260   126825220.860 7        44.150    24134042.340    98824847.02445
        38.550    24134043.240
  25878696.240   135993469.848 6        40.200    25878693.940   105968927.49543
        31.050    25878694.320
  25291839.520   132909512.188 5        37.100    25291838.900   103565844.50943
        31.900    25291838.980
  24850703.760   130591290.336 7        43.300    24850701.460   101759415.81644
        34.800    24850702.060
  22491013.280   118191090.724 8        45.850    22491009.180    92096976.77545
        37.900
  24350595.240   127963277.012 7        43.150    24350593.460    99711641.89145
        37.650    24350594.540
  24066495.400   126470277.010 6        40.300    24066494.060    98548264.17045
        36.900    24066495.240
  21654551.340   113795450.950 9        50.100    21654546.660    88671764.39647
        42.900    21654547.620
  25772718.180   135436535.438 5        38.850    25772717.000   105534965.06844
        32.900    25772718.060
 19  9 29 16 22  0.0000000  0 11G02G05G06G07G09G12G13G15G25G29G30
  21264245.400   111744374.775 8        48.050    21264238.440    87073522.05847
        44.850
  20108502.060   105670911.819 9        50.650    20108497.700    82340973.10548
        47.250    20108498.520
  24149657.060   126907277.091 7        43.500    24149657.180    98888786.89145
        37.800    24149658.060
  25871241.900   135954297.300 6        40.900    25871239.660   105938403.42442
        27.800    25871240.040
  25310308.660   133006567.658 5        36.650    25310308.020   103641472.16544
        33.200    25310307.940
  24869295.840   130688991.829 7        42.050    24869293.460   101835546.76645
        36.600    24869294.100
  22472477.620   118093685.111 8        45.000    22472473.440    92021076.32845
        37.950
  24327856.920   127843786.705 7        43.500    24327855.220    99618532.65846
        39.600    24327856.240
  24080123.620   126541893.850 6        39.200    24080122.220    98604069.50445
        37.550    24080123.400
  21642028.580   113729643.320 9        49.800    21642023.860    88620485.73447
        42.650    21642024.820
  25760413.300   135371873.275 6        40.800    25760412.240   105484578.95041
        25.250    25760413.280
 19  9 29 16 22 30.0000000  0 11G02G05G06G07G09G12G13G15G25G29G30
  21269006.120   111769392.383 8        47.900    21268999.160    87093016.26848
        45.050
  20110037.260   105678979.452 9        50.750    20110032.900    82347259.57048
        47.200    20110033.720
  24165297.060   126989465.449 7        43.800    24165297.180    98952829.67545
        36.850    24165298.060
  25863850.760   135915456.632 6        39.550    25863848.480   105908138.00343
        31.850    25863848.880
  25328822.280   133103856.815 5        37.650    25328821.520   103717281.85444
        32.300    25328821.420
  24887878.700   130786644.945 7        43.000    24887876.260   101911640.03145
        36.500    24887876.900
  22453995.240   117996559.751 8        45.250    22453991.040    91945394.29046
        39.700
  24305126.680   127724338.700 7        44.200    24305125.080    99525456.35745
        38.000    24305126.020
  24093803.980   126613784.487 7        43.700    24093802.580    98660088.13545
        36.650    24093803.800
  21629591.880   113664287.976 9        50.050    21629587.140    88569559.49847
        43.000    21629588.100
  25748132.980   135307339.862 5        38.400    25748131.960   105434293.12044
        35.750    25748133.020
 19  9 29 16 23  0.0000000  0 11G02G05G06G07G09G12G13G15G25G29G30
  21273817.120   111794674.430 8        48.050    21273810.180    87112716.56047
        44.900
  20111650.460   105687456.986 9        50.700    20111646.100    82353865.44048
        46.850    20111646.940
  24180961.640   127071783.039 7        43.550    24180961.720    99016973.21345
        37.150    24180962.620
  25856522.640   135876947.030 5        38.650    25856520.320   105878130.50043
        30.550    25856520.740
  25347379.340   133201374.629 5        36.550    25347378.500   103793269.71443
        29.300    25347378.440
  24906451.120   130884243.505 7        43.500    24906448.640   101987690.84344
        35.900    24906449.280
  22435566.220   117899715.001 8        46.150    22435562.060    91869930.92145
        37.650
  24282404.400   127604932.581 7        44.250    24282402.880    99432412.68945
        37.950    24282403.760
  24107535.380   126685943.153 7        44.000    24107534.000    98716315.59544
        35.700    24107535.220
  21617241.260   113599384.972 9        50.000    21617236.480    88518985.74547
        43.500    21617237.460
  25735877.160   135242935.404 6        39.850    25735876.240   105384107.76444
        34.650    25735877.300
 19  9 29 16 23 30.0000000  0 11G02G05G06G07G09G12G13G15G25G29G30
  21278678.420   111820220.846 8        47.600    21278671.540    87132622.85048
        45.200
  20113341.380   105696342.880 9        50.750    20113337.020    82360789.49748
        47.400    20113337.860
  24196650.580   127154228.807 7        44.100    24196650.660    99081216.65645
        38.000    24196651.540
  25849257.840   135838770.065 5        37.950    25849255.540   105848382.19942
        27.600    25849255.980
  25365979.240   133299117.861 4        35.900    25365978.420   103869433.26743
        31.000    25365978.320
  24925012.640   130981784.478 7        42.650    24925010.120   102063696.72245
        36.900    24925010.760
  22417191.180   117803153.512 8        45.850    22417187.060    91794688.18745
        37.800
